,Neighbourhood,Neighbourhood Latitude,Neighbourhood Longitude,Venue,Venue Latitude,Venue Longitude,Venue Category
0,Homies,48.85354190495365,2.364448383450508,Homies,48.85354190495365,2.364448383450508,Tapas Restaurant
1,Homies,48.85354190495365,2.364448383450508,Le Temps des Cerises,48.85255362794662,2.364194654389621,French Restaurant
2,Homies,48.85354190495365,2.364448383450508,Sherry Butt,48.85326738634583,2.3641137778759003,Cocktail Bar
3,Homies,48.85354190495365,2.364448383450508,Pasta Linea,48.85524971348305,2.3634157029409995,Italian Restaurant
4,Homies,48.85354190495365,2.364448383450508,Keep Cool,48.85208479878069,2.3633714946624815,Gym
5,Homies,48.85354190495365,2.364448383450508,La Moustache Blanche,48.85452477876369,2.3673031736565684,Beer Store
6,Homies,48.85354190495365,2.364448383450508,Place des Vosges,48.85562342675294,2.365531325340271,Plaza
7,Homies,48.85354190495365,2.364448383450508,Café Ginger,48.852887,2.367354,Vegetarian / Vegan Restaurant
8,Homies,48.85354190495365,2.364448383450508,La Cerise sur la Pizza,48.8540374685859,2.362342849373817,Pizza Place
9,Homies,48.85354190495365,2.364448383450508,L'Ambroisie,48.85534,2.364355,French Restaurant
10,Homies,48.85354190495365,2.364448383450508,Maria Loca,48.852122537323886,2.365666920222009,Cocktail Bar
11,Homies,48.85354190495365,2.364448383450508,Gaspard de la Nuit,48.85410155334177,2.3673950733099174,French Restaurant
12,Homies,48.85354190495365,2.364448383450508,Vins des Pyrénées,48.85371248516514,2.3644620724780503,French Restaurant
13,Homies,48.85354190495365,2.364448383450508,Place du Marché Sainte-Catherine,48.85539047488832,2.3628169298171997,Plaza
14,Homies,48.85354190495365,2.364448383450508,Garde Républicaine,48.85144449251261,2.364519420427195,Government Building
15,Homies,48.85354190495365,2.364448383450508,Le Dindon en Laisse,48.85320120383447,2.36406147480011,French Restaurant
16,Homies,48.85354190495365,2.364448383450508,Jardin de Sully,48.85498719619549,2.3640553433490066,Garden
17,Homies,48.85354190495365,2.364448383450508,Boulangerie Saint-Antoine,48.85363271223415,2.365220189094543,Bakery
18,Homies,48.85354190495365,2.364448383450508,HOTEL DE JOBO,48.85543761945354,2.362076401178279,Hotel
19,Homies,48.85354190495365,2.364448383450508,Village Saint-Paul,48.85368918749588,2.3615241050720215,Pedestrian Plaza
20,Homies,48.85354190495365,2.364448383450508,Le Chanard,48.8529120567913,2.361544888389472,French Restaurant
21,Homies,48.85354190495365,2.364448383450508,La Mangerie,48.8557965430479,2.362733014737857,Tapas Restaurant
22,Homies,48.85354190495365,2.364448383450508,Hôtel de Béthune-Sully,48.8549449512819,2.364075696543451,Historic Site
23,Homies,48.85354190495365,2.364448383450508,Bubar,48.85395038475273,2.3672452569007874,Wine Bar
24,Homies,48.85354190495365,2.364448383450508,Chez Margot,48.85181106403719,2.3645978263169347,French Restaurant
25,Homies,48.85354190495365,2.364448383450508,Au Bouquet Saint Paul,48.854619072894074,2.362799024277326,Gastropub
26,Homies,48.85354190495365,2.364448383450508,Maison de Victor Hugo,48.85517319635984,2.3658665866902946,Historic Site
27,Homies,48.85354190495365,2.364448383450508,Miss Manon,48.854654757084475,2.3626185166066054,Bakery
28,Homies,48.85354190495365,2.364448383450508,Savannah Coffee,48.85512471642688,2.3633047154536158,Coffee Shop
29,Homies,48.85354190495365,2.364448383450508,Dammann Frères,48.855861567283824,2.364829753752238,Tea Room
30,Homies,48.85354190495365,2.364448383450508,Frog Revolution,48.853788104716685,2.368305450632397,Pub
31,Homies,48.85354190495365,2.364448383450508,L'Area Café,48.854247991532944,2.367328600640753,Brazilian Restaurant
32,Homies,48.85354190495365,2.364448383450508,Amorino,48.85638977779494,2.364113819785416,Ice Cream Shop
33,Homies,48.85354190495365,2.364448383450508,Sushi Shop,48.8540125503199,2.364544483389482,Sushi Restaurant
34,Homies,48.85354190495365,2.364448383450508,Yellow Tucan,48.854684,2.367288,Coffee Shop
35,Homies,48.85354190495365,2.364448383450508,Comptoir des Mers,48.854830682556106,2.3631150284516735,Seafood Restaurant
36,Homies,48.85354190495365,2.364448383450508,Brasserie Bofinger,48.853914536392324,2.368043214082718,French Restaurant
37,Homies,48.85354190495365,2.364448383450508,L'Enoteca,48.853416864533614,2.361671385262398,Italian Restaurant
38,Homies,48.85354190495365,2.364448383450508,Carette,48.856304628258506,2.3654937744140625,Tea Room
39,Homies,48.85354190495365,2.364448383450508,Galerie Nikki Diana Marquardt,48.855395769260916,2.363736927509308,Art Gallery
40,Homies,48.85354190495365,2.364448383450508,Hôtel Pavillon de la Reine,48.856386591661504,2.366008934683876,Hotel
41,Homies,48.85354190495365,2.364448383450508,Hôtel Original Paris,48.854696379409795,2.3688413516715108,Hotel
42,Homies,48.85354190495365,2.364448383450508,Casa San Pablo,48.85537356647822,2.3619003036424235,Tapas Restaurant
43,Homies,48.85354190495365,2.364448383450508,Le Rusti,48.85414250211515,2.3673939748982593,Italian Restaurant
44,Homies,48.85354190495365,2.364448383450508,Chez Mademoiselle,48.85429032043008,2.3598099177322163,Restaurant
45,Homies,48.85354190495365,2.364448383450508,Pedra Alta,48.85457343512051,2.3687582449479803,Seafood Restaurant
46,Homies,48.85354190495365,2.364448383450508,Grand Hôtel Malher,48.85565493925689,2.3610673237119957,Hotel
47,Homies,48.85354190495365,2.364448383450508,Pavillon de l'Arsenal,48.85065016214532,2.362340470390449,Museum
48,Homies,48.85354190495365,2.364448383450508,Chocolaterie Joséphine Vannier,48.85590203900677,2.367756939475856,Chocolate Shop
49,Homies,48.85354190495365,2.364448383450508,Place de la Bastille,48.85312443201169,2.3691415786743164,Plaza
50,Homies,48.85354190495365,2.364448383450508,Les Nautes,48.85223139940081,2.3603063821792603,Gastropub
51,Homies,48.85354190495365,2.364448383450508,Thai Spices,48.85273297322603,2.3603588795363155,Thai Restaurant
52,Homies,48.85354190495365,2.364448383450508,YellowKorner,48.8567703,2.36360609,Art Gallery
53,Homies,48.85354190495365,2.364448383450508,Fromagerie Laurent Dubois,48.854999932727935,2.3620156060434487,Cheese Shop
54,Homies,48.85354190495365,2.364448383450508,Lenôtre,48.85353786385404,2.36701105076752,Gourmet Shop
55,Homies,48.85354190495365,2.364448383450508,La Cidrerie du Marais,48.85527521296667,2.3618296629469007,French Restaurant
56,Homies,48.85354190495365,2.364448383450508,Bistrot de l'Oulette,48.855543576518954,2.367340331440506,French Restaurant
57,Homies,48.85354190495365,2.364448383450508,Chez Janou,48.85664435397839,2.36724340761729,Provençal Restaurant
58,Homies,48.85354190495365,2.364448383450508,Popelini,48.85665757876075,2.3642975091934204,Pastry Shop
59,Homies,48.85354190495365,2.364448383450508,L'Ardoise 86,48.85482,2.362543,Bistro
60,Homies,48.85354190495365,2.364448383450508,Khao Thai,48.855679548743396,2.3621634174650668,Asian Restaurant
61,Homies,48.85354190495365,2.364448383450508,Au Petit Thai,48.855655063264095,2.3601878078479244,Thai Restaurant
62,Homies,48.85354190495365,2.364448383450508,Les Bonnes Sœurs,48.85600439835367,2.366941119545712,French Restaurant
63,Homies,48.85354190495365,2.364448383450508,Hôtel Turenne Le Marais,48.85508220217492,2.3633378712409416,Hotel
64,Homies,48.85354190495365,2.364448383450508,Maison Européenne de la Photographie,48.85512804426985,2.358947843313217,Art Museum
65,Homies,48.85354190495365,2.364448383450508,Place Saint-Paul,48.85540137038666,2.360181672202446,Plaza
66,Homies,48.85354190495365,2.364448383450508,LECLAIREUR Sévigné,48.85734113331375,2.3632732457190597,Clothing Store
67,Homies,48.85354190495365,2.364448383450508,COS,48.85657238568342,2.3606406149144887,Clothing Store
68,Homies,48.85354190495365,2.364448383450508,La Mouette Rieuse,48.85670853893964,2.361315623158024,Bookstore
69,Homies,48.85354190495365,2.364448383450508,Le Petit Marché,48.85725921677337,2.3662138652687053,French Restaurant
70,Homies,48.85354190495365,2.364448383450508,Pitzman,48.855853475354756,2.360295479688141,Falafel Restaurant
71,Homies,48.85354190495365,2.364448383450508,Opéra Bastille,48.85234082322526,2.3702841997146606,Opera House
72,Homies,48.85354190495365,2.364448383450508,The Brooklyn Pizzeria,48.85590797137251,2.3684435626251457,Pizza Place
73,Homies,48.85354190495365,2.364448383450508,Monoprix,48.85426853,2.36333073,Supermarket
74,Homies,48.85354190495365,2.364448383450508,Ban Sabai,48.85311840725063,2.367074893874337,Spa
75,Homies,48.85354190495365,2.364448383450508,L'Éclair de Génie,48.856254362311105,2.3606137291477016,Pastry Shop
76,Homies,48.85354190495365,2.364448383450508,Jardin de l'Hôtel de Sens,48.85384194954609,2.3584037951179067,Garden
77,Homies,48.85354190495365,2.364448383450508,Le Loir dans la Théière,48.85634089988964,2.3610769355582812,Tea Room
78,Homies,48.85354190495365,2.364448383450508,Breakfast in America,48.855473,2.361279,Diner
79,Homies,48.85354190495365,2.364448383450508,Street Bangkok Canteen & Bar,48.85418069606821,2.3710834980010986,Thai Restaurant
80,Homies,48.85354190495365,2.364448383450508,Rivolux,48.85559040054201,2.35941883896175,Bar
81,Homies,48.85354190495365,2.364448383450508,Le Piment,48.85640481174577,2.362565277771221,Bar
82,Homies,48.85354190495365,2.364448383450508,Bistrot des Vosges,48.85569718910249,2.368231639266014,French Restaurant
83,Homies,48.85354190495365,2.364448383450508,Metropolitain,48.8547958687542,2.358438544170859,French Restaurant
84,Homies,48.85354190495365,2.364448383450508,Acqua di Parma,48.85657993366014,2.3638540722123382,Cosmetics Shop
85,Homies,48.85354190495365,2.364448383450508,Polka Galerie,48.857816622165444,2.366518341304415,Art Gallery
86,Homies,48.85354190495365,2.364448383450508,Babylone,48.854704,2.371046,Falafel Restaurant
87,Homies,48.85354190495365,2.364448383450508,Le Moulin de Rosa,48.857098833316606,2.364334074850337,Bakery
88,Homies,48.85354190495365,2.364448383450508,Café Hugo,48.8559924395967,2.366606556957324,Café
89,Homies,48.85354190495365,2.364448383450508,Jardins du Port de l'Arsenal,48.850165408086845,2.368031787395834,Park
90,Homies,48.85354190495365,2.364448383450508,La Carte des Vins,48.85581537830124,2.368633369486338,Wine Shop
91,Homies,48.85354190495365,2.364448383450508,Léon de Bruxelles,48.85415,2.36863659,Seafood Restaurant
92,Homies,48.85354190495365,2.364448383450508,Le Tabarin,48.85588860529345,2.3690490511479587,French Restaurant
93,Homies,48.85354190495365,2.364448383450508,Le Petit Italien,48.85774295923826,2.366427120931592,Italian Restaurant
94,Homies,48.85354190495365,2.364448383450508,El Ganso,48.85683986455612,2.3600554342273647,Men's Store
95,Homies,48.85354190495365,2.364448383450508,Paul,48.85484360945126,2.36231713453927,Bakery
96,Homies,48.85354190495365,2.364448383450508,Chez Papa,48.85058963699485,2.368768648916627,Southwestern French Restaurant
97,Homies,48.85354190495365,2.364448383450508,Le Lèche-Vin,48.854937277916044,2.37060953938688,Bar
98,Homies,48.85354190495365,2.364448383450508,adidas Originals,48.8565601,2.3604948,Sporting Goods Shop
99,Homies,48.85354190495365,2.364448383450508,No 42,48.857391433592845,2.3633388501309764,Shoe Store
100,Le Temps des Cerises,48.85255362794662,2.364194654389621,Homies,48.85354190495365,2.364448383450508,Tapas Restaurant
101,Le Temps des Cerises,48.85255362794662,2.364194654389621,Le Temps des Cerises,48.85255362794662,2.364194654389621,French Restaurant
102,Le Temps des Cerises,48.85255362794662,2.364194654389621,Sherry Butt,48.85326738634583,2.3641137778759003,Cocktail Bar
103,Le Temps des Cerises,48.85255362794662,2.364194654389621,Keep Cool,48.85208479878069,2.3633714946624815,Gym
104,Le Temps des Cerises,48.85255362794662,2.364194654389621,Garde Républicaine,48.85144449251261,2.364519420427195,Government Building
105,Le Temps des Cerises,48.85255362794662,2.364194654389621,Maria Loca,48.852122537323886,2.365666920222009,Cocktail Bar
106,Le Temps des Cerises,48.85255362794662,2.364194654389621,Café Ginger,48.852887,2.367354,Vegetarian / Vegan Restaurant
107,Le Temps des Cerises,48.85255362794662,2.364194654389621,Vins des Pyrénées,48.85371248516514,2.3644620724780503,French Restaurant
108,Le Temps des Cerises,48.85255362794662,2.364194654389621,La Cerise sur la Pizza,48.8540374685859,2.362342849373817,Pizza Place
109,Le Temps des Cerises,48.85255362794662,2.364194654389621,Le Chanard,48.8529120567913,2.361544888389472,French Restaurant
110,Le Temps des Cerises,48.85255362794662,2.364194654389621,Le Dindon en Laisse,48.85320120383447,2.36406147480011,French Restaurant
111,Le Temps des Cerises,48.85255362794662,2.364194654389621,Boulangerie Saint-Antoine,48.85363271223415,2.365220189094543,Bakery
112,Le Temps des Cerises,48.85255362794662,2.364194654389621,Pavillon de l'Arsenal,48.85065016214532,2.362340470390449,Museum
113,Le Temps des Cerises,48.85255362794662,2.364194654389621,Chez Margot,48.85181106403719,2.3645978263169347,French Restaurant
114,Le Temps des Cerises,48.85255362794662,2.364194654389621,Village Saint-Paul,48.85368918749588,2.3615241050720215,Pedestrian Plaza
115,Le Temps des Cerises,48.85255362794662,2.364194654389621,La Moustache Blanche,48.85452477876369,2.3673031736565684,Beer Store
116,Le Temps des Cerises,48.85255362794662,2.364194654389621,Gaspard de la Nuit,48.85410155334177,2.3673950733099174,French Restaurant
117,Le Temps des Cerises,48.85255362794662,2.364194654389621,Pasta Linea,48.85524971348305,2.3634157029409995,Italian Restaurant
118,Le Temps des Cerises,48.85255362794662,2.364194654389621,Sushi Shop,48.8540125503199,2.364544483389482,Sushi Restaurant
119,Le Temps des Cerises,48.85255362794662,2.364194654389621,Place des Vosges,48.85562342675294,2.365531325340271,Plaza
120,Le Temps des Cerises,48.85255362794662,2.364194654389621,L'Enoteca,48.853416864533614,2.361671385262398,Italian Restaurant
121,Le Temps des Cerises,48.85255362794662,2.364194654389621,Les Nautes,48.85223139940081,2.3603063821792603,Gastropub
122,Le Temps des Cerises,48.85255362794662,2.364194654389621,Jardin de Sully,48.85498719619549,2.3640553433490066,Garden
123,Le Temps des Cerises,48.85255362794662,2.364194654389621,L'Ambroisie,48.85534,2.364355,French Restaurant
124,Le Temps des Cerises,48.85255362794662,2.364194654389621,Place du Marché Sainte-Catherine,48.85539047488832,2.3628169298171997,Plaza
125,Le Temps des Cerises,48.85255362794662,2.364194654389621,Au Bouquet Saint Paul,48.854619072894074,2.362799024277326,Gastropub
126,Le Temps des Cerises,48.85255362794662,2.364194654389621,Bubar,48.85395038475273,2.3672452569007874,Wine Bar
127,Le Temps des Cerises,48.85255362794662,2.364194654389621,Hôtel de Béthune-Sully,48.8549449512819,2.364075696543451,Historic Site
128,Le Temps des Cerises,48.85255362794662,2.364194654389621,Miss Manon,48.854654757084475,2.3626185166066054,Bakery
129,Le Temps des Cerises,48.85255362794662,2.364194654389621,Frog Revolution,48.853788104716685,2.368305450632397,Pub
130,Le Temps des Cerises,48.85255362794662,2.364194654389621,Thai Spices,48.85273297322603,2.3603588795363155,Thai Restaurant
131,Le Temps des Cerises,48.85255362794662,2.364194654389621,HOTEL DE JOBO,48.85543761945354,2.362076401178279,Hotel
132,Le Temps des Cerises,48.85255362794662,2.364194654389621,Chez Mademoiselle,48.85429032043008,2.3598099177322163,Restaurant
133,Le Temps des Cerises,48.85255362794662,2.364194654389621,La Mangerie,48.8557965430479,2.362733014737857,Tapas Restaurant
134,Le Temps des Cerises,48.85255362794662,2.364194654389621,Brasserie Bofinger,48.853914536392324,2.368043214082718,French Restaurant
135,Le Temps des Cerises,48.85255362794662,2.364194654389621,L'Area Café,48.854247991532944,2.367328600640753,Brazilian Restaurant
136,Le Temps des Cerises,48.85255362794662,2.364194654389621,Savannah Coffee,48.85512471642688,2.3633047154536158,Coffee Shop
137,Le Temps des Cerises,48.85255362794662,2.364194654389621,Comptoir des Mers,48.854830682556106,2.3631150284516735,Seafood Restaurant
138,Le Temps des Cerises,48.85255362794662,2.364194654389621,Maison de Victor Hugo,48.85517319635984,2.3658665866902946,Historic Site
139,Le Temps des Cerises,48.85255362794662,2.364194654389621,Yellow Tucan,48.854684,2.367288,Coffee Shop
140,Le Temps des Cerises,48.85255362794662,2.364194654389621,Place de la Bastille,48.85312443201169,2.3691415786743164,Plaza
141,Le Temps des Cerises,48.85255362794662,2.364194654389621,Dammann Frères,48.855861567283824,2.364829753752238,Tea Room
142,Le Temps des Cerises,48.85255362794662,2.364194654389621,Hôtel Original Paris,48.854696379409795,2.3688413516715108,Hotel
143,Le Temps des Cerises,48.85255362794662,2.364194654389621,Le Rusti,48.85414250211515,2.3673939748982593,Italian Restaurant
144,Le Temps des Cerises,48.85255362794662,2.364194654389621,Amorino,48.85638977779494,2.364113819785416,Ice Cream Shop
145,Le Temps des Cerises,48.85255362794662,2.364194654389621,Lenôtre,48.85353786385404,2.36701105076752,Gourmet Shop
146,Le Temps des Cerises,48.85255362794662,2.364194654389621,Pedra Alta,48.85457343512051,2.3687582449479803,Seafood Restaurant
147,Le Temps des Cerises,48.85255362794662,2.364194654389621,Casa San Pablo,48.85537356647822,2.3619003036424235,Tapas Restaurant
148,Le Temps des Cerises,48.85255362794662,2.364194654389621,Grand Hôtel Malher,48.85565493925689,2.3610673237119957,Hotel
149,Le Temps des Cerises,48.85255362794662,2.364194654389621,Galerie Nikki Diana Marquardt,48.855395769260916,2.363736927509308,Art Gallery
150,Le Temps des Cerises,48.85255362794662,2.364194654389621,Carette,48.856304628258506,2.3654937744140625,Tea Room
151,Le Temps des Cerises,48.85255362794662,2.364194654389621,Square Barye,48.850239695733976,2.3596105387349615,Park
152,Le Temps des Cerises,48.85255362794662,2.364194654389621,Opéra Bastille,48.85234082322526,2.3702841997146606,Opera House
153,Le Temps des Cerises,48.85255362794662,2.364194654389621,Hôtel Pavillon de la Reine,48.856386591661504,2.366008934683876,Hotel
154,Le Temps des Cerises,48.85255362794662,2.364194654389621,Monoprix,48.85426853,2.36333073,Supermarket
155,Le Temps des Cerises,48.85255362794662,2.364194654389621,Fromagerie Laurent Dubois,48.854999932727935,2.3620156060434487,Cheese Shop
156,Le Temps des Cerises,48.85255362794662,2.364194654389621,Jardins du Port de l'Arsenal,48.850165408086845,2.368031787395834,Park
157,Le Temps des Cerises,48.85255362794662,2.364194654389621,Jardin de l'Hôtel de Sens,48.85384194954609,2.3584037951179067,Garden
158,Le Temps des Cerises,48.85255362794662,2.364194654389621,Maison Européenne de la Photographie,48.85512804426985,2.358947843313217,Art Museum
159,Le Temps des Cerises,48.85255362794662,2.364194654389621,La Cidrerie du Marais,48.85527521296667,2.3618296629469007,French Restaurant
160,Le Temps des Cerises,48.85255362794662,2.364194654389621,Chocolaterie Joséphine Vannier,48.85590203900677,2.367756939475856,Chocolate Shop
161,Le Temps des Cerises,48.85255362794662,2.364194654389621,Ban Sabai,48.85311840725063,2.367074893874337,Spa
162,Le Temps des Cerises,48.85255362794662,2.364194654389621,Au Petit Thai,48.855655063264095,2.3601878078479244,Thai Restaurant
163,Le Temps des Cerises,48.85255362794662,2.364194654389621,L'Ardoise 86,48.85482,2.362543,Bistro
164,Le Temps des Cerises,48.85255362794662,2.364194654389621,YellowKorner,48.8567703,2.36360609,Art Gallery
165,Le Temps des Cerises,48.85255362794662,2.364194654389621,Place Saint-Paul,48.85540137038666,2.360181672202446,Plaza
166,Le Temps des Cerises,48.85255362794662,2.364194654389621,Bistrot de l'Oulette,48.855543576518954,2.367340331440506,French Restaurant
167,Le Temps des Cerises,48.85255362794662,2.364194654389621,Khao Thai,48.855679548743396,2.3621634174650668,Asian Restaurant
168,Le Temps des Cerises,48.85255362794662,2.364194654389621,Hôtel Turenne Le Marais,48.85508220217492,2.3633378712409416,Hotel
169,Le Temps des Cerises,48.85255362794662,2.364194654389621,Popelini,48.85665757876075,2.3642975091934204,Pastry Shop
170,Le Temps des Cerises,48.85255362794662,2.364194654389621,Chez Papa,48.85058963699485,2.368768648916627,Southwestern French Restaurant
171,Le Temps des Cerises,48.85255362794662,2.364194654389621,Les Bonnes Sœurs,48.85600439835367,2.366941119545712,French Restaurant
172,Le Temps des Cerises,48.85255362794662,2.364194654389621,Pitzman,48.855853475354756,2.360295479688141,Falafel Restaurant
173,Le Temps des Cerises,48.85255362794662,2.364194654389621,Metropolitain,48.8547958687542,2.358438544170859,French Restaurant
174,Le Temps des Cerises,48.85255362794662,2.364194654389621,Le Pavillon Bastille,48.850855667731146,2.3700794951745485,Hotel
175,Le Temps des Cerises,48.85255362794662,2.364194654389621,L'Éclair de Génie,48.856254362311105,2.3606137291477016,Pastry Shop
176,Le Temps des Cerises,48.85255362794662,2.364194654389621,Rivolux,48.85559040054201,2.35941883896175,Bar
177,Le Temps des Cerises,48.85255362794662,2.364194654389621,Breakfast in America,48.855473,2.361279,Diner
178,Le Temps des Cerises,48.85255362794662,2.364194654389621,Le Loir dans la Théière,48.85634089988964,2.3610769355582812,Tea Room
179,Le Temps des Cerises,48.85255362794662,2.364194654389621,Supersonic,48.85026572254583,2.3697217372873,Music Venue
180,Le Temps des Cerises,48.85255362794662,2.364194654389621,The Brooklyn Pizzeria,48.85590797137251,2.3684435626251457,Pizza Place
181,Le Temps des Cerises,48.85255362794662,2.364194654389621,Café de la Presse,48.850369460426656,2.368881539619165,Bar
182,Le Temps des Cerises,48.85255362794662,2.364194654389621,Bistrot des Vosges,48.85569718910249,2.368231639266014,French Restaurant
183,Le Temps des Cerises,48.85255362794662,2.364194654389621,Le Piment,48.85640481174577,2.362565277771221,Bar
184,Le Temps des Cerises,48.85255362794662,2.364194654389621,Hôtel des Archevêques de Sens,48.85285088673232,2.3610052051883965,Historic Site
185,Le Temps des Cerises,48.85255362794662,2.364194654389621,Léon de Bruxelles,48.85415,2.36863659,Seafood Restaurant
186,Le Temps des Cerises,48.85255362794662,2.364194654389621,Acqua di Parma,48.85657993366014,2.3638540722123382,Cosmetics Shop
187,Le Temps des Cerises,48.85255362794662,2.364194654389621,Café Hugo,48.8559924395967,2.366606556957324,Café
188,Le Temps des Cerises,48.85255362794662,2.364194654389621,La Carte des Vins,48.85581537830124,2.368633369486338,Wine Shop
189,Le Temps des Cerises,48.85255362794662,2.364194654389621,Paul,48.85484360945126,2.36231713453927,Bakery
190,Le Temps des Cerises,48.85255362794662,2.364194654389621,L'Eléphant du Nil,48.85539868963803,2.3603315339710873,French Restaurant
191,Le Temps des Cerises,48.85255362794662,2.364194654389621,Petit Pan,48.85546021238195,2.35904288690604,Kids Store
192,Le Temps des Cerises,48.85255362794662,2.364194654389621,Le Beaumarchais,48.85514431276109,2.368605551961227,French Restaurant
193,Le Temps des Cerises,48.85255362794662,2.364194654389621,Amorino,48.853415689377655,2.370150409699995,Ice Cream Shop
194,Le Temps des Cerises,48.85255362794662,2.364194654389621,Maison Georges Larnicol,48.85551837131587,2.359651358391658,Candy Store
195,Le Temps des Cerises,48.85255362794662,2.364194654389621,L'Orangerie,48.85161720962512,2.35757052898407,French Restaurant
196,Le Temps des Cerises,48.85255362794662,2.364194654389621,Cour Damoye,48.853996823992155,2.37027136922009,Pedestrian Plaza
197,Le Temps des Cerises,48.85255362794662,2.364194654389621,Diptyque,48.85669803825385,2.3636340304090617,Cosmetics Shop
198,Le Temps des Cerises,48.85255362794662,2.364194654389621,Monsieur Poulet,48.85634429341378,2.3625498097075623,Clothing Store
199,Le Temps des Cerises,48.85255362794662,2.364194654389621,Les Tournelles Hotel,48.857007640155025,2.3644908118245302,Hotel
200,Sherry Butt,48.85326738634583,2.3641137778759003,Homies,48.85354190495365,2.364448383450508,Tapas Restaurant
201,Sherry Butt,48.85326738634583,2.3641137778759003,Le Temps des Cerises,48.85255362794662,2.364194654389621,French Restaurant
202,Sherry Butt,48.85326738634583,2.3641137778759003,Sherry Butt,48.85326738634583,2.3641137778759003,Cocktail Bar
203,Sherry Butt,48.85326738634583,2.3641137778759003,Keep Cool,48.85208479878069,2.3633714946624815,Gym
204,Sherry Butt,48.85326738634583,2.3641137778759003,La Cerise sur la Pizza,48.8540374685859,2.362342849373817,Pizza Place
205,Sherry Butt,48.85326738634583,2.3641137778759003,Maria Loca,48.852122537323886,2.365666920222009,Cocktail Bar
206,Sherry Butt,48.85326738634583,2.3641137778759003,Garde Républicaine,48.85144449251261,2.364519420427195,Government Building
207,Sherry Butt,48.85326738634583,2.3641137778759003,Pasta Linea,48.85524971348305,2.3634157029409995,Italian Restaurant
208,Sherry Butt,48.85326738634583,2.3641137778759003,Vins des Pyrénées,48.85371248516514,2.3644620724780503,French Restaurant
209,Sherry Butt,48.85326738634583,2.3641137778759003,Café Ginger,48.852887,2.367354,Vegetarian / Vegan Restaurant
210,Sherry Butt,48.85326738634583,2.3641137778759003,La Moustache Blanche,48.85452477876369,2.3673031736565684,Beer Store
211,Sherry Butt,48.85326738634583,2.3641137778759003,Place des Vosges,48.85562342675294,2.365531325340271,Plaza
212,Sherry Butt,48.85326738634583,2.3641137778759003,Le Chanard,48.8529120567913,2.361544888389472,French Restaurant
213,Sherry Butt,48.85326738634583,2.3641137778759003,Village Saint-Paul,48.85368918749588,2.3615241050720215,Pedestrian Plaza
214,Sherry Butt,48.85326738634583,2.3641137778759003,L'Ambroisie,48.85534,2.364355,French Restaurant
215,Sherry Butt,48.85326738634583,2.3641137778759003,Place du Marché Sainte-Catherine,48.85539047488832,2.3628169298171997,Plaza
216,Sherry Butt,48.85326738634583,2.3641137778759003,Gaspard de la Nuit,48.85410155334177,2.3673950733099174,French Restaurant
217,Sherry Butt,48.85326738634583,2.3641137778759003,Jardin de Sully,48.85498719619549,2.3640553433490066,Garden
218,Sherry Butt,48.85326738634583,2.3641137778759003,Le Dindon en Laisse,48.85320120383447,2.36406147480011,French Restaurant
219,Sherry Butt,48.85326738634583,2.3641137778759003,Boulangerie Saint-Antoine,48.85363271223415,2.365220189094543,Bakery
220,Sherry Butt,48.85326738634583,2.3641137778759003,Hôtel de Béthune-Sully,48.8549449512819,2.364075696543451,Historic Site
221,Sherry Butt,48.85326738634583,2.3641137778759003,HOTEL DE JOBO,48.85543761945354,2.362076401178279,Hotel
222,Sherry Butt,48.85326738634583,2.3641137778759003,Chez Margot,48.85181106403719,2.3645978263169347,French Restaurant
223,Sherry Butt,48.85326738634583,2.3641137778759003,Au Bouquet Saint Paul,48.854619072894074,2.362799024277326,Gastropub
224,Sherry Butt,48.85326738634583,2.3641137778759003,Miss Manon,48.854654757084475,2.3626185166066054,Bakery
225,Sherry Butt,48.85326738634583,2.3641137778759003,La Mangerie,48.8557965430479,2.362733014737857,Tapas Restaurant
226,Sherry Butt,48.85326738634583,2.3641137778759003,Savannah Coffee,48.85512471642688,2.3633047154536158,Coffee Shop
227,Sherry Butt,48.85326738634583,2.3641137778759003,Sushi Shop,48.8540125503199,2.364544483389482,Sushi Restaurant
228,Sherry Butt,48.85326738634583,2.3641137778759003,L'Enoteca,48.853416864533614,2.361671385262398,Italian Restaurant
229,Sherry Butt,48.85326738634583,2.3641137778759003,Bubar,48.85395038475273,2.3672452569007874,Wine Bar
230,Sherry Butt,48.85326738634583,2.3641137778759003,Comptoir des Mers,48.854830682556106,2.3631150284516735,Seafood Restaurant
231,Sherry Butt,48.85326738634583,2.3641137778759003,Dammann Frères,48.855861567283824,2.364829753752238,Tea Room
232,Sherry Butt,48.85326738634583,2.3641137778759003,Frog Revolution,48.853788104716685,2.368305450632397,Pub
233,Sherry Butt,48.85326738634583,2.3641137778759003,Maison de Victor Hugo,48.85517319635984,2.3658665866902946,Historic Site
234,Sherry Butt,48.85326738634583,2.3641137778759003,Pavillon de l'Arsenal,48.85065016214532,2.362340470390449,Museum
235,Sherry Butt,48.85326738634583,2.3641137778759003,Chez Mademoiselle,48.85429032043008,2.3598099177322163,Restaurant
236,Sherry Butt,48.85326738634583,2.3641137778759003,Amorino,48.85638977779494,2.364113819785416,Ice Cream Shop
237,Sherry Butt,48.85326738634583,2.3641137778759003,L'Area Café,48.854247991532944,2.367328600640753,Brazilian Restaurant
238,Sherry Butt,48.85326738634583,2.3641137778759003,Les Nautes,48.85223139940081,2.3603063821792603,Gastropub
239,Sherry Butt,48.85326738634583,2.3641137778759003,Thai Spices,48.85273297322603,2.3603588795363155,Thai Restaurant
240,Sherry Butt,48.85326738634583,2.3641137778759003,Yellow Tucan,48.854684,2.367288,Coffee Shop
241,Sherry Butt,48.85326738634583,2.3641137778759003,Brasserie Bofinger,48.853914536392324,2.368043214082718,French Restaurant
242,Sherry Butt,48.85326738634583,2.3641137778759003,Casa San Pablo,48.85537356647822,2.3619003036424235,Tapas Restaurant
243,Sherry Butt,48.85326738634583,2.3641137778759003,Galerie Nikki Diana Marquardt,48.855395769260916,2.363736927509308,Art Gallery
244,Sherry Butt,48.85326738634583,2.3641137778759003,Carette,48.856304628258506,2.3654937744140625,Tea Room
245,Sherry Butt,48.85326738634583,2.3641137778759003,Grand Hôtel Malher,48.85565493925689,2.3610673237119957,Hotel
246,Sherry Butt,48.85326738634583,2.3641137778759003,Hôtel Pavillon de la Reine,48.856386591661504,2.366008934683876,Hotel
247,Sherry Butt,48.85326738634583,2.3641137778759003,Le Rusti,48.85414250211515,2.3673939748982593,Italian Restaurant
248,Sherry Butt,48.85326738634583,2.3641137778759003,Hôtel Original Paris,48.854696379409795,2.3688413516715108,Hotel
249,Sherry Butt,48.85326738634583,2.3641137778759003,Fromagerie Laurent Dubois,48.854999932727935,2.3620156060434487,Cheese Shop
250,Sherry Butt,48.85326738634583,2.3641137778759003,Pedra Alta,48.85457343512051,2.3687582449479803,Seafood Restaurant
251,Sherry Butt,48.85326738634583,2.3641137778759003,La Cidrerie du Marais,48.85527521296667,2.3618296629469007,French Restaurant
252,Sherry Butt,48.85326738634583,2.3641137778759003,Place de la Bastille,48.85312443201169,2.3691415786743164,Plaza
253,Sherry Butt,48.85326738634583,2.3641137778759003,Lenôtre,48.85353786385404,2.36701105076752,Gourmet Shop
254,Sherry Butt,48.85326738634583,2.3641137778759003,L'Ardoise 86,48.85482,2.362543,Bistro
255,Sherry Butt,48.85326738634583,2.3641137778759003,YellowKorner,48.8567703,2.36360609,Art Gallery
256,Sherry Butt,48.85326738634583,2.3641137778759003,Chocolaterie Joséphine Vannier,48.85590203900677,2.367756939475856,Chocolate Shop
257,Sherry Butt,48.85326738634583,2.3641137778759003,Au Petit Thai,48.855655063264095,2.3601878078479244,Thai Restaurant
258,Sherry Butt,48.85326738634583,2.3641137778759003,Maison Européenne de la Photographie,48.85512804426985,2.358947843313217,Art Museum
259,Sherry Butt,48.85326738634583,2.3641137778759003,Hôtel Turenne Le Marais,48.85508220217492,2.3633378712409416,Hotel
260,Sherry Butt,48.85326738634583,2.3641137778759003,Khao Thai,48.855679548743396,2.3621634174650668,Asian Restaurant
261,Sherry Butt,48.85326738634583,2.3641137778759003,Popelini,48.85665757876075,2.3642975091934204,Pastry Shop
262,Sherry Butt,48.85326738634583,2.3641137778759003,Place Saint-Paul,48.85540137038666,2.360181672202446,Plaza
263,Sherry Butt,48.85326738634583,2.3641137778759003,Bistrot de l'Oulette,48.855543576518954,2.367340331440506,French Restaurant
264,Sherry Butt,48.85326738634583,2.3641137778759003,Chez Janou,48.85664435397839,2.36724340761729,Provençal Restaurant
265,Sherry Butt,48.85326738634583,2.3641137778759003,Jardin de l'Hôtel de Sens,48.85384194954609,2.3584037951179067,Garden
266,Sherry Butt,48.85326738634583,2.3641137778759003,Les Bonnes Sœurs,48.85600439835367,2.366941119545712,French Restaurant
267,Sherry Butt,48.85326738634583,2.3641137778759003,COS,48.85657238568342,2.3606406149144887,Clothing Store
268,Sherry Butt,48.85326738634583,2.3641137778759003,Pitzman,48.855853475354756,2.360295479688141,Falafel Restaurant
269,Sherry Butt,48.85326738634583,2.3641137778759003,LECLAIREUR Sévigné,48.85734113331375,2.3632732457190597,Clothing Store
270,Sherry Butt,48.85326738634583,2.3641137778759003,Monoprix,48.85426853,2.36333073,Supermarket
271,Sherry Butt,48.85326738634583,2.3641137778759003,La Mouette Rieuse,48.85670853893964,2.361315623158024,Bookstore
272,Sherry Butt,48.85326738634583,2.3641137778759003,L'Éclair de Génie,48.856254362311105,2.3606137291477016,Pastry Shop
273,Sherry Butt,48.85326738634583,2.3641137778759003,Opéra Bastille,48.85234082322526,2.3702841997146606,Opera House
274,Sherry Butt,48.85326738634583,2.3641137778759003,Ban Sabai,48.85311840725063,2.367074893874337,Spa
275,Sherry Butt,48.85326738634583,2.3641137778759003,Breakfast in America,48.855473,2.361279,Diner
276,Sherry Butt,48.85326738634583,2.3641137778759003,Le Loir dans la Théière,48.85634089988964,2.3610769355582812,Tea Room
277,Sherry Butt,48.85326738634583,2.3641137778759003,Rivolux,48.85559040054201,2.35941883896175,Bar
278,Sherry Butt,48.85326738634583,2.3641137778759003,Le Petit Marché,48.85725921677337,2.3662138652687053,French Restaurant
279,Sherry Butt,48.85326738634583,2.3641137778759003,Metropolitain,48.8547958687542,2.358438544170859,French Restaurant
280,Sherry Butt,48.85326738634583,2.3641137778759003,Square Barye,48.850239695733976,2.3596105387349615,Park
281,Sherry Butt,48.85326738634583,2.3641137778759003,The Brooklyn Pizzeria,48.85590797137251,2.3684435626251457,Pizza Place
282,Sherry Butt,48.85326738634583,2.3641137778759003,Le Piment,48.85640481174577,2.362565277771221,Bar
283,Sherry Butt,48.85326738634583,2.3641137778759003,Jardins du Port de l'Arsenal,48.850165408086845,2.368031787395834,Park
284,Sherry Butt,48.85326738634583,2.3641137778759003,Bistrot des Vosges,48.85569718910249,2.368231639266014,French Restaurant
285,Sherry Butt,48.85326738634583,2.3641137778759003,Acqua di Parma,48.85657993366014,2.3638540722123382,Cosmetics Shop
286,Sherry Butt,48.85326738634583,2.3641137778759003,Le Moulin de Rosa,48.857098833316606,2.364334074850337,Bakery
287,Sherry Butt,48.85326738634583,2.3641137778759003,Café Hugo,48.8559924395967,2.366606556957324,Café
288,Sherry Butt,48.85326738634583,2.3641137778759003,Chez Papa,48.85058963699485,2.368768648916627,Southwestern French Restaurant
289,Sherry Butt,48.85326738634583,2.3641137778759003,El Ganso,48.85683986455612,2.3600554342273647,Men's Store
290,Sherry Butt,48.85326738634583,2.3641137778759003,Paul,48.85484360945126,2.36231713453927,Bakery
291,Sherry Butt,48.85326738634583,2.3641137778759003,Léon de Bruxelles,48.85415,2.36863659,Seafood Restaurant
292,Sherry Butt,48.85326738634583,2.3641137778759003,Le Tabarin,48.85588860529345,2.3690490511479587,French Restaurant
293,Sherry Butt,48.85326738634583,2.3641137778759003,La Carte des Vins,48.85581537830124,2.368633369486338,Wine Shop
294,Sherry Butt,48.85326738634583,2.3641137778759003,Hôtel des Archevêques de Sens,48.85285088673232,2.3610052051883965,Historic Site
295,Sherry Butt,48.85326738634583,2.3641137778759003,adidas Originals,48.8565601,2.3604948,Sporting Goods Shop
296,Sherry Butt,48.85326738634583,2.3641137778759003,L'Eléphant du Nil,48.85539868963803,2.3603315339710873,French Restaurant
297,Sherry Butt,48.85326738634583,2.3641137778759003,No 42,48.857391433592845,2.3633388501309764,Shoe Store
298,Sherry Butt,48.85326738634583,2.3641137778759003,All In Sushi,48.857584388018125,2.36446513985942,Japanese Restaurant
299,Sherry Butt,48.85326738634583,2.3641137778759003,Petit Pan,48.85546021238195,2.35904288690604,Kids Store
300,Keep Cool,48.85208479878069,2.3633714946624815,Homies,48.85354190495365,2.364448383450508,Tapas Restaurant
301,Keep Cool,48.85208479878069,2.3633714946624815,Le Temps des Cerises,48.85255362794662,2.364194654389621,French Restaurant
302,Keep Cool,48.85208479878069,2.3633714946624815,Sherry Butt,48.85326738634583,2.3641137778759003,Cocktail Bar
303,Keep Cool,48.85208479878069,2.3633714946624815,Keep Cool,48.85208479878069,2.3633714946624815,Gym
304,Keep Cool,48.85208479878069,2.3633714946624815,Pavillon de l'Arsenal,48.85065016214532,2.362340470390449,Museum
305,Keep Cool,48.85208479878069,2.3633714946624815,Garde Républicaine,48.85144449251261,2.364519420427195,Government Building
306,Keep Cool,48.85208479878069,2.3633714946624815,Maria Loca,48.852122537323886,2.365666920222009,Cocktail Bar
307,Keep Cool,48.85208479878069,2.3633714946624815,Vins des Pyrénées,48.85371248516514,2.3644620724780503,French Restaurant
308,Keep Cool,48.85208479878069,2.3633714946624815,La Cerise sur la Pizza,48.8540374685859,2.362342849373817,Pizza Place
309,Keep Cool,48.85208479878069,2.3633714946624815,Le Chanard,48.8529120567913,2.361544888389472,French Restaurant
310,Keep Cool,48.85208479878069,2.3633714946624815,Le Dindon en Laisse,48.85320120383447,2.36406147480011,French Restaurant
311,Keep Cool,48.85208479878069,2.3633714946624815,Les Nautes,48.85223139940081,2.3603063821792603,Gastropub
312,Keep Cool,48.85208479878069,2.3633714946624815,Village Saint-Paul,48.85368918749588,2.3615241050720215,Pedestrian Plaza
313,Keep Cool,48.85208479878069,2.3633714946624815,Boulangerie Saint-Antoine,48.85363271223415,2.365220189094543,Bakery
314,Keep Cool,48.85208479878069,2.3633714946624815,Chez Margot,48.85181106403719,2.3645978263169347,French Restaurant
315,Keep Cool,48.85208479878069,2.3633714946624815,Café Ginger,48.852887,2.367354,Vegetarian / Vegan Restaurant
316,Keep Cool,48.85208479878069,2.3633714946624815,Thai Spices,48.85273297322603,2.3603588795363155,Thai Restaurant
317,Keep Cool,48.85208479878069,2.3633714946624815,L'Enoteca,48.853416864533614,2.361671385262398,Italian Restaurant
318,Keep Cool,48.85208479878069,2.3633714946624815,Sushi Shop,48.8540125503199,2.364544483389482,Sushi Restaurant
319,Keep Cool,48.85208479878069,2.3633714946624815,Pasta Linea,48.85524971348305,2.3634157029409995,Italian Restaurant
320,Keep Cool,48.85208479878069,2.3633714946624815,Chez Mademoiselle,48.85429032043008,2.3598099177322163,Restaurant
321,Keep Cool,48.85208479878069,2.3633714946624815,Square Barye,48.850239695733976,2.3596105387349615,Park
322,Keep Cool,48.85208479878069,2.3633714946624815,Au Bouquet Saint Paul,48.854619072894074,2.362799024277326,Gastropub
323,Keep Cool,48.85208479878069,2.3633714946624815,Gaspard de la Nuit,48.85410155334177,2.3673950733099174,French Restaurant
324,Keep Cool,48.85208479878069,2.3633714946624815,La Moustache Blanche,48.85452477876369,2.3673031736565684,Beer Store
325,Keep Cool,48.85208479878069,2.3633714946624815,Place du Marché Sainte-Catherine,48.85539047488832,2.3628169298171997,Plaza
326,Keep Cool,48.85208479878069,2.3633714946624815,Miss Manon,48.854654757084475,2.3626185166066054,Bakery
327,Keep Cool,48.85208479878069,2.3633714946624815,HOTEL DE JOBO,48.85543761945354,2.362076401178279,Hotel
328,Keep Cool,48.85208479878069,2.3633714946624815,Jardin de Sully,48.85498719619549,2.3640553433490066,Garden
329,Keep Cool,48.85208479878069,2.3633714946624815,L'Ambroisie,48.85534,2.364355,French Restaurant
330,Keep Cool,48.85208479878069,2.3633714946624815,Place des Vosges,48.85562342675294,2.365531325340271,Plaza
331,Keep Cool,48.85208479878069,2.3633714946624815,Hôtel de Béthune-Sully,48.8549449512819,2.364075696543451,Historic Site
332,Keep Cool,48.85208479878069,2.3633714946624815,La Mangerie,48.8557965430479,2.362733014737857,Tapas Restaurant
333,Keep Cool,48.85208479878069,2.3633714946624815,Bubar,48.85395038475273,2.3672452569007874,Wine Bar
334,Keep Cool,48.85208479878069,2.3633714946624815,Comptoir des Mers,48.854830682556106,2.3631150284516735,Seafood Restaurant
335,Keep Cool,48.85208479878069,2.3633714946624815,Frog Revolution,48.853788104716685,2.368305450632397,Pub
336,Keep Cool,48.85208479878069,2.3633714946624815,Savannah Coffee,48.85512471642688,2.3633047154536158,Coffee Shop
337,Keep Cool,48.85208479878069,2.3633714946624815,Jardin de l'Hôtel de Sens,48.85384194954609,2.3584037951179067,Garden
338,Keep Cool,48.85208479878069,2.3633714946624815,Grand Hôtel Malher,48.85565493925689,2.3610673237119957,Hotel
339,Keep Cool,48.85208479878069,2.3633714946624815,Casa San Pablo,48.85537356647822,2.3619003036424235,Tapas Restaurant
340,Keep Cool,48.85208479878069,2.3633714946624815,Yachts de Paris,48.84791426220394,2.3633265495300293,Boat or Ferry
341,Keep Cool,48.85208479878069,2.3633714946624815,Brasserie Bofinger,48.853914536392324,2.368043214082718,French Restaurant
342,Keep Cool,48.85208479878069,2.3633714946624815,Maison Européenne de la Photographie,48.85512804426985,2.358947843313217,Art Museum
343,Keep Cool,48.85208479878069,2.3633714946624815,L'Area Café,48.854247991532944,2.367328600640753,Brazilian Restaurant
344,Keep Cool,48.85208479878069,2.3633714946624815,Dammann Frères,48.855861567283824,2.364829753752238,Tea Room
345,Keep Cool,48.85208479878069,2.3633714946624815,Amorino,48.85638977779494,2.364113819785416,Ice Cream Shop
346,Keep Cool,48.85208479878069,2.3633714946624815,Place de la Bastille,48.85312443201169,2.3691415786743164,Plaza
347,Keep Cool,48.85208479878069,2.3633714946624815,Maison de Victor Hugo,48.85517319635984,2.3658665866902946,Historic Site
348,Keep Cool,48.85208479878069,2.3633714946624815,Berthillon,48.85170517997717,2.3567061871290207,Ice Cream Shop
349,Keep Cool,48.85208479878069,2.3633714946624815,Yellow Tucan,48.854684,2.367288,Coffee Shop
350,Keep Cool,48.85208479878069,2.3633714946624815,Jardins du Port de l'Arsenal,48.850165408086845,2.368031787395834,Park
351,Keep Cool,48.85208479878069,2.3633714946624815,Fromagerie Laurent Dubois,48.854999932727935,2.3620156060434487,Cheese Shop
352,Keep Cool,48.85208479878069,2.3633714946624815,Au Petit Thai,48.855655063264095,2.3601878078479244,Thai Restaurant
353,Keep Cool,48.85208479878069,2.3633714946624815,Galerie Nikki Diana Marquardt,48.855395769260916,2.363736927509308,Art Gallery
354,Keep Cool,48.85208479878069,2.3633714946624815,La Cidrerie du Marais,48.85527521296667,2.3618296629469007,French Restaurant
355,Keep Cool,48.85208479878069,2.3633714946624815,Le Rusti,48.85414250211515,2.3673939748982593,Italian Restaurant
356,Keep Cool,48.85208479878069,2.3633714946624815,Hôtel Original Paris,48.854696379409795,2.3688413516715108,Hotel
357,Keep Cool,48.85208479878069,2.3633714946624815,Place Saint-Paul,48.85540137038666,2.360181672202446,Plaza
358,Keep Cool,48.85208479878069,2.3633714946624815,Monoprix,48.85426853,2.36333073,Supermarket
359,Keep Cool,48.85208479878069,2.3633714946624815,Lenôtre,48.85353786385404,2.36701105076752,Gourmet Shop
360,Keep Cool,48.85208479878069,2.3633714946624815,Pedra Alta,48.85457343512051,2.3687582449479803,Seafood Restaurant
361,Keep Cool,48.85208479878069,2.3633714946624815,Metropolitain,48.8547958687542,2.358438544170859,French Restaurant
362,Keep Cool,48.85208479878069,2.3633714946624815,Carette,48.856304628258506,2.3654937744140625,Tea Room
363,Keep Cool,48.85208479878069,2.3633714946624815,L'Ardoise 86,48.85482,2.362543,Bistro
364,Keep Cool,48.85208479878069,2.3633714946624815,Pom'Cannelle,48.85200671994731,2.3567263401625396,Ice Cream Shop
365,Keep Cool,48.85208479878069,2.3633714946624815,Pitzman,48.855853475354756,2.360295479688141,Falafel Restaurant
366,Keep Cool,48.85208479878069,2.3633714946624815,Khao Thai,48.855679548743396,2.3621634174650668,Asian Restaurant
367,Keep Cool,48.85208479878069,2.3633714946624815,Rivolux,48.85559040054201,2.35941883896175,Bar
368,Keep Cool,48.85208479878069,2.3633714946624815,Chez Papa,48.85058963699485,2.368768648916627,Southwestern French Restaurant
369,Keep Cool,48.85208479878069,2.3633714946624815,Hôtel Turenne Le Marais,48.85508220217492,2.3633378712409416,Hotel
370,Keep Cool,48.85208479878069,2.3633714946624815,Ban Sabai,48.85311840725063,2.367074893874337,Spa
371,Keep Cool,48.85208479878069,2.3633714946624815,Hôtel des Archevêques de Sens,48.85285088673232,2.3610052051883965,Historic Site
372,Keep Cool,48.85208479878069,2.3633714946624815,Breakfast in America,48.855473,2.361279,Diner
373,Keep Cool,48.85208479878069,2.3633714946624815,Bistrot de l'Oulette,48.855543576518954,2.367340331440506,French Restaurant
374,Keep Cool,48.85208479878069,2.3633714946624815,Café de la Presse,48.850369460426656,2.368881539619165,Bar
375,Keep Cool,48.85208479878069,2.3633714946624815,Le Piment,48.85640481174577,2.362565277771221,Bar
376,Keep Cool,48.85208479878069,2.3633714946624815,Les Fous de l'Île,48.85221305911912,2.356882355835097,French Restaurant
377,Keep Cool,48.85208479878069,2.3633714946624815,L'Orangerie,48.85161720962512,2.35757052898407,French Restaurant
378,Keep Cool,48.85208479878069,2.3633714946624815,L'Eléphant du Nil,48.85539868963803,2.3603315339710873,French Restaurant
379,Keep Cool,48.85208479878069,2.3633714946624815,Paul,48.85484360945126,2.36231713453927,Bakery
380,Keep Cool,48.85208479878069,2.3633714946624815,Petit Pan,48.85546021238195,2.35904288690604,Kids Store
381,Keep Cool,48.85208479878069,2.3633714946624815,Léon de Bruxelles,48.85415,2.36863659,Seafood Restaurant
382,Keep Cool,48.85208479878069,2.3633714946624815,Café Hugo,48.8559924395967,2.366606556957324,Café
383,Keep Cool,48.85208479878069,2.3633714946624815,Maison Georges Larnicol,48.85551837131587,2.359651358391658,Candy Store
384,Keep Cool,48.85208479878069,2.3633714946624815,Monsieur Poulet,48.85634429341378,2.3625498097075623,Clothing Store
385,Keep Cool,48.85208479878069,2.3633714946624815,Juice Lab,48.856288745427406,2.365609109401703,Juice Bar
386,Keep Cool,48.85208479878069,2.3633714946624815,La Seine,48.850036070533356,2.368612048680013,Gastropub
387,Keep Cool,48.85208479878069,2.3633714946624815,Opéra BD,48.85378,2.367547,Bookstore
388,La Cerise sur la Pizza,48.8540374685859,2.362342849373817,Homies,48.85354190495365,2.364448383450508,Tapas Restaurant
389,La Cerise sur la Pizza,48.8540374685859,2.362342849373817,Sherry Butt,48.85326738634583,2.3641137778759003,Cocktail Bar
390,La Cerise sur la Pizza,48.8540374685859,2.362342849373817,HOTEL DE JOBO,48.85543761945354,2.362076401178279,Hotel
391,La Cerise sur la Pizza,48.8540374685859,2.362342849373817,La Mangerie,48.8557965430479,2.362733014737857,Tapas Restaurant
392,La Cerise sur la Pizza,48.8540374685859,2.362342849373817,Chez Mademoiselle,48.85429032043008,2.3598099177322163,Restaurant
393,La Cerise sur la Pizza,48.8540374685859,2.362342849373817,Pasta Linea,48.85524971348305,2.3634157029409995,Italian Restaurant
394,La Cerise sur la Pizza,48.8540374685859,2.362342849373817,Place du Marché Sainte-Catherine,48.85539047488832,2.3628169298171997,Plaza
395,La Cerise sur la Pizza,48.8540374685859,2.362342849373817,Le Temps des Cerises,48.85255362794662,2.364194654389621,French Restaurant
396,La Cerise sur la Pizza,48.8540374685859,2.362342849373817,La Cerise sur la Pizza,48.8540374685859,2.362342849373817,Pizza Place
397,La Cerise sur la Pizza,48.8540374685859,2.362342849373817,Grand Hôtel Malher,48.85565493925689,2.3610673237119957,Hotel
398,La Cerise sur la Pizza,48.8540374685859,2.362342849373817,L'Ambroisie,48.85534,2.364355,French Restaurant
399,La Cerise sur la Pizza,48.8540374685859,2.362342849373817,Vins des Pyrénées,48.85371248516514,2.3644620724780503,French Restaurant
400,La Cerise sur la Pizza,48.8540374685859,2.362342849373817,Keep Cool,48.85208479878069,2.3633714946624815,Gym
401,La Cerise sur la Pizza,48.8540374685859,2.362342849373817,Le Chanard,48.8529120567913,2.361544888389472,French Restaurant
402,La Cerise sur la Pizza,48.8540374685859,2.362342849373817,Village Saint-Paul,48.85368918749588,2.3615241050720215,Pedestrian Plaza
403,La Cerise sur la Pizza,48.8540374685859,2.362342849373817,Jardin de Sully,48.85498719619549,2.3640553433490066,Garden
404,La Cerise sur la Pizza,48.8540374685859,2.362342849373817,Le Dindon en Laisse,48.85320120383447,2.36406147480011,French Restaurant
405,La Cerise sur la Pizza,48.8540374685859,2.362342849373817,Au Petit Thai,48.855655063264095,2.3601878078479244,Thai Restaurant
406,La Cerise sur la Pizza,48.8540374685859,2.362342849373817,Place des Vosges,48.85562342675294,2.365531325340271,Plaza
407,La Cerise sur la Pizza,48.8540374685859,2.362342849373817,Maison Européenne de la Photographie,48.85512804426985,2.358947843313217,Art Museum
408,La Cerise sur la Pizza,48.8540374685859,2.362342849373817,Casa San Pablo,48.85537356647822,2.3619003036424235,Tapas Restaurant
409,La Cerise sur la Pizza,48.8540374685859,2.362342849373817,Thai Spices,48.85273297322603,2.3603588795363155,Thai Restaurant
410,La Cerise sur la Pizza,48.8540374685859,2.362342849373817,Place Saint-Paul,48.85540137038666,2.360181672202446,Plaza
411,La Cerise sur la Pizza,48.8540374685859,2.362342849373817,Boulangerie Saint-Antoine,48.85363271223415,2.365220189094543,Bakery
412,La Cerise sur la Pizza,48.8540374685859,2.362342849373817,Amorino,48.85638977779494,2.364113819785416,Ice Cream Shop
413,La Cerise sur la Pizza,48.8540374685859,2.362342849373817,Hôtel de Béthune-Sully,48.8549449512819,2.364075696543451,Historic Site
414,La Cerise sur la Pizza,48.8540374685859,2.362342849373817,Au Bouquet Saint Paul,48.854619072894074,2.362799024277326,Gastropub
415,La Cerise sur la Pizza,48.8540374685859,2.362342849373817,Miss Manon,48.854654757084475,2.3626185166066054,Bakery
416,La Cerise sur la Pizza,48.8540374685859,2.362342849373817,Savannah Coffee,48.85512471642688,2.3633047154536158,Coffee Shop
417,La Cerise sur la Pizza,48.8540374685859,2.362342849373817,Les Nautes,48.85223139940081,2.3603063821792603,Gastropub
418,La Cerise sur la Pizza,48.8540374685859,2.362342849373817,Pitzman,48.855853475354756,2.360295479688141,Falafel Restaurant
419,La Cerise sur la Pizza,48.8540374685859,2.362342849373817,Jardin de l'Hôtel de Sens,48.85384194954609,2.3584037951179067,Garden
420,La Cerise sur la Pizza,48.8540374685859,2.362342849373817,Dammann Frères,48.855861567283824,2.364829753752238,Tea Room
421,La Cerise sur la Pizza,48.8540374685859,2.362342849373817,Sushi Shop,48.8540125503199,2.364544483389482,Sushi Restaurant
422,La Cerise sur la Pizza,48.8540374685859,2.362342849373817,L'Enoteca,48.853416864533614,2.361671385262398,Italian Restaurant
423,La Cerise sur la Pizza,48.8540374685859,2.362342849373817,COS,48.85657238568342,2.3606406149144887,Clothing Store
424,La Cerise sur la Pizza,48.8540374685859,2.362342849373817,La Cidrerie du Marais,48.85527521296667,2.3618296629469007,French Restaurant
425,La Cerise sur la Pizza,48.8540374685859,2.362342849373817,Comptoir des Mers,48.854830682556106,2.3631150284516735,Seafood Restaurant
426,La Cerise sur la Pizza,48.8540374685859,2.362342849373817,L'Éclair de Génie,48.856254362311105,2.3606137291477016,Pastry Shop
427,La Cerise sur la Pizza,48.8540374685859,2.362342849373817,Galerie Nikki Diana Marquardt,48.855395769260916,2.363736927509308,Art Gallery
428,La Cerise sur la Pizza,48.8540374685859,2.362342849373817,Khao Thai,48.855679548743396,2.3621634174650668,Asian Restaurant
429,La Cerise sur la Pizza,48.8540374685859,2.362342849373817,Rivolux,48.85559040054201,2.35941883896175,Bar
430,La Cerise sur la Pizza,48.8540374685859,2.362342849373817,La Mouette Rieuse,48.85670853893964,2.361315623158024,Bookstore
431,La Cerise sur la Pizza,48.8540374685859,2.362342849373817,Metropolitain,48.8547958687542,2.358438544170859,French Restaurant
432,La Cerise sur la Pizza,48.8540374685859,2.362342849373817,YellowKorner,48.8567703,2.36360609,Art Gallery
433,La Cerise sur la Pizza,48.8540374685859,2.362342849373817,Le Loir dans la Théière,48.85634089988964,2.3610769355582812,Tea Room
434,La Cerise sur la Pizza,48.8540374685859,2.362342849373817,Fromagerie Laurent Dubois,48.854999932727935,2.3620156060434487,Cheese Shop
435,La Cerise sur la Pizza,48.8540374685859,2.362342849373817,La Moustache Blanche,48.85452477876369,2.3673031736565684,Beer Store
436,La Cerise sur la Pizza,48.8540374685859,2.362342849373817,Vingt Vins d'Art,48.85521431940058,2.3579396506069488,Wine Bar
437,La Cerise sur la Pizza,48.8540374685859,2.362342849373817,Maria Loca,48.852122537323886,2.365666920222009,Cocktail Bar
438,La Cerise sur la Pizza,48.8540374685859,2.362342849373817,Garde Républicaine,48.85144449251261,2.364519420427195,Government Building
439,La Cerise sur la Pizza,48.8540374685859,2.362342849373817,Carette,48.856304628258506,2.3654937744140625,Tea Room
440,La Cerise sur la Pizza,48.8540374685859,2.362342849373817,Breakfast in America,48.855473,2.361279,Diner
441,La Cerise sur la Pizza,48.8540374685859,2.362342849373817,Maison de Victor Hugo,48.85517319635984,2.3658665866902946,Historic Site
442,La Cerise sur la Pizza,48.8540374685859,2.362342849373817,Popelini,48.85665757876075,2.3642975091934204,Pastry Shop
443,La Cerise sur la Pizza,48.8540374685859,2.362342849373817,Murciano Boulangerie et Patisserie,48.85698355286805,2.3597894794820027,Bakery
444,La Cerise sur la Pizza,48.8540374685859,2.362342849373817,Gaspard de la Nuit,48.85410155334177,2.3673950733099174,French Restaurant
445,La Cerise sur la Pizza,48.8540374685859,2.362342849373817,LECLAIREUR Sévigné,48.85734113331375,2.3632732457190597,Clothing Store
446,La Cerise sur la Pizza,48.8540374685859,2.362342849373817,Hôtel Pavillon de la Reine,48.856386591661504,2.366008934683876,Hotel
447,La Cerise sur la Pizza,48.8540374685859,2.362342849373817,Café Ginger,48.852887,2.367354,Vegetarian / Vegan Restaurant
448,La Cerise sur la Pizza,48.8540374685859,2.362342849373817,Chez Margot,48.85181106403719,2.3645978263169347,French Restaurant
449,La Cerise sur la Pizza,48.8540374685859,2.362342849373817,Pavillon de l'Arsenal,48.85065016214532,2.362340470390449,Museum
450,La Cerise sur la Pizza,48.8540374685859,2.362342849373817,L'Ardoise 86,48.85482,2.362543,Bistro
451,La Cerise sur la Pizza,48.8540374685859,2.362342849373817,Le Piment,48.85640481174577,2.362565277771221,Bar
452,La Cerise sur la Pizza,48.8540374685859,2.362342849373817,Miznon,48.857200621424404,2.3589573284780676,Israeli Restaurant
453,La Cerise sur la Pizza,48.8540374685859,2.362342849373817,Hôtel Turenne Le Marais,48.85508220217492,2.3633378712409416,Hotel
454,La Cerise sur la Pizza,48.8540374685859,2.362342849373817,Princess Crêpe,48.85633801979823,2.3582201223926127,Creperie
455,La Cerise sur la Pizza,48.8540374685859,2.362342849373817,Au Bourguignon du Marais,48.855609413503736,2.357703652114703,Burgundian Restaurant
456,La Cerise sur la Pizza,48.8540374685859,2.362342849373817,Schwartz's Deli,48.85697506468535,2.3588300680322063,Burger Joint
457,La Cerise sur la Pizza,48.8540374685859,2.362342849373817,El Ganso,48.85683986455612,2.3600554342273647,Men's Store
458,La Cerise sur la Pizza,48.8540374685859,2.362342849373817,Bubar,48.85395038475273,2.3672452569007874,Wine Bar
459,La Cerise sur la Pizza,48.8540374685859,2.362342849373817,Florence Kahn,48.85730682545885,2.3590140076755444,Deli / Bodega
460,La Cerise sur la Pizza,48.8540374685859,2.362342849373817,Autour du Saumon,48.85558694633289,2.3578015122239786,Scandinavian Restaurant
461,La Cerise sur la Pizza,48.8540374685859,2.362342849373817,L'Eléphant du Nil,48.85539868963803,2.3603315339710873,French Restaurant
462,La Cerise sur la Pizza,48.8540374685859,2.362342849373817,L'As du Fallafel,48.857381354315706,2.359014657852358,Falafel Restaurant
463,La Cerise sur la Pizza,48.8540374685859,2.362342849373817,Pamela Popo,48.85574916092363,2.3569190697806426,French Restaurant
464,La Cerise sur la Pizza,48.8540374685859,2.362342849373817,Chez Camille,48.85778184433875,2.360754789853313,French Restaurant
465,La Cerise sur la Pizza,48.8540374685859,2.362342849373817,Yellow Tucan,48.854684,2.367288,Coffee Shop
466,La Cerise sur la Pizza,48.8540374685859,2.362342849373817,L'Area Café,48.854247991532944,2.367328600640753,Brazilian Restaurant
467,La Cerise sur la Pizza,48.8540374685859,2.362342849373817,Jardin Francs Bourgeois-Rosiers,48.857422896989796,2.360200691589316,Garden
468,La Cerise sur la Pizza,48.8540374685859,2.362342849373817,adidas Originals,48.8565601,2.3604948,Sporting Goods Shop
469,La Cerise sur la Pizza,48.8540374685859,2.362342849373817,Monoprix,48.85426853,2.36333073,Supermarket
470,La Cerise sur la Pizza,48.8540374685859,2.362342849373817,Chez Janou,48.85664435397839,2.36724340761729,Provençal Restaurant
471,La Cerise sur la Pizza,48.8540374685859,2.362342849373817,Frog Revolution,48.853788104716685,2.368305450632397,Pub
472,La Cerise sur la Pizza,48.8540374685859,2.362342849373817,Cité Internationale des Arts,48.85400983891493,2.3567382656184863,Cultural Center
473,La Cerise sur la Pizza,48.8540374685859,2.362342849373817,Café Suédois,48.85808142896356,2.36235789389241,Scandinavian Restaurant
474,La Cerise sur la Pizza,48.8540374685859,2.362342849373817,Tamarind,48.85558457689471,2.3580934245539256,Thai Restaurant
475,La Cerise sur la Pizza,48.8540374685859,2.362342849373817,Aux Merveilleux de Fred,48.85568607650127,2.356368899345398,Dessert Shop
476,La Cerise sur la Pizza,48.8540374685859,2.362342849373817,Institut Suédois,48.85806902055969,2.3623135372841992,Cultural Center
477,La Cerise sur la Pizza,48.8540374685859,2.362342849373817,Acqua di Parma,48.85657993366014,2.3638540722123382,Cosmetics Shop
478,La Cerise sur la Pizza,48.8540374685859,2.362342849373817,Chocolaterie Joséphine Vannier,48.85590203900677,2.367756939475856,Chocolate Shop
479,La Cerise sur la Pizza,48.8540374685859,2.362342849373817,Le Petit Marché,48.85725921677337,2.3662138652687053,French Restaurant
480,La Cerise sur la Pizza,48.8540374685859,2.362342849373817,Petit Pan,48.85546021238195,2.35904288690604,Kids Store
481,La Cerise sur la Pizza,48.8540374685859,2.362342849373817,Berthillon,48.85170517997717,2.3567061871290207,Ice Cream Shop
482,La Cerise sur la Pizza,48.8540374685859,2.362342849373817,Brasserie Bofinger,48.853914536392324,2.368043214082718,French Restaurant
483,La Cerise sur la Pizza,48.8540374685859,2.362342849373817,Hôtel Original Paris,48.854696379409795,2.3688413516715108,Hotel
484,La Cerise sur la Pizza,48.8540374685859,2.362342849373817,Le Peloton Café,48.85550466759594,2.3560337163355456,Coffee Shop
485,La Cerise sur la Pizza,48.8540374685859,2.362342849373817,Uniqlo,48.85786906242865,2.3600542545318604,Clothing Store
486,La Cerise sur la Pizza,48.8540374685859,2.362342849373817,Tavline,48.856444,2.357509,Jewish Restaurant
487,La Cerise sur la Pizza,48.8540374685859,2.362342849373817,Mémorial de la Shoah,48.854825897257065,2.3562544165218426,Memorial Site
488,Garde Républicaine,48.85144449251261,2.364519420427195,Le Temps des Cerises,48.85255362794662,2.364194654389621,French Restaurant
489,Garde Républicaine,48.85144449251261,2.364519420427195,Sherry Butt,48.85326738634583,2.3641137778759003,Cocktail Bar
490,Garde Républicaine,48.85144449251261,2.364519420427195,Keep Cool,48.85208479878069,2.3633714946624815,Gym
491,Garde Républicaine,48.85144449251261,2.364519420427195,Pavillon de l'Arsenal,48.85065016214532,2.362340470390449,Museum
492,Garde Républicaine,48.85144449251261,2.364519420427195,Garde Républicaine,48.85144449251261,2.364519420427195,Government Building
493,Garde Républicaine,48.85144449251261,2.364519420427195,Homies,48.85354190495365,2.364448383450508,Tapas Restaurant
494,Garde Républicaine,48.85144449251261,2.364519420427195,Maria Loca,48.852122537323886,2.365666920222009,Cocktail Bar
495,Garde Républicaine,48.85144449251261,2.364519420427195,Café Ginger,48.852887,2.367354,Vegetarian / Vegan Restaurant
496,Garde Républicaine,48.85144449251261,2.364519420427195,Le Dindon en Laisse,48.85320120383447,2.36406147480011,French Restaurant
497,Garde Républicaine,48.85144449251261,2.364519420427195,Vins des Pyrénées,48.85371248516514,2.3644620724780503,French Restaurant
498,Garde Républicaine,48.85144449251261,2.364519420427195,Chez Margot,48.85181106403719,2.3645978263169347,French Restaurant
499,Garde Républicaine,48.85144449251261,2.364519420427195,Boulangerie Saint-Antoine,48.85363271223415,2.365220189094543,Bakery
500,Garde Républicaine,48.85144449251261,2.364519420427195,Le Chanard,48.8529120567913,2.361544888389472,French Restaurant
501,Garde Républicaine,48.85144449251261,2.364519420427195,La Cerise sur la Pizza,48.8540374685859,2.362342849373817,Pizza Place
502,Garde Républicaine,48.85144449251261,2.364519420427195,Les Nautes,48.85223139940081,2.3603063821792603,Gastropub
503,Garde Républicaine,48.85144449251261,2.364519420427195,Gaspard de la Nuit,48.85410155334177,2.3673950733099174,French Restaurant
504,Garde Républicaine,48.85144449251261,2.364519420427195,Jardins du Port de l'Arsenal,48.850165408086845,2.368031787395834,Park
505,Garde Républicaine,48.85144449251261,2.364519420427195,La Moustache Blanche,48.85452477876369,2.3673031736565684,Beer Store
506,Garde Républicaine,48.85144449251261,2.364519420427195,Village Saint-Paul,48.85368918749588,2.3615241050720215,Pedestrian Plaza
507,Garde Républicaine,48.85144449251261,2.364519420427195,Yachts de Paris,48.84791426220394,2.3633265495300293,Boat or Ferry
508,Garde Républicaine,48.85144449251261,2.364519420427195,Sushi Shop,48.8540125503199,2.364544483389482,Sushi Restaurant
509,Garde Républicaine,48.85144449251261,2.364519420427195,Frog Revolution,48.853788104716685,2.368305450632397,Pub
510,Garde Républicaine,48.85144449251261,2.364519420427195,Thai Spices,48.85273297322603,2.3603588795363155,Thai Restaurant
511,Garde Républicaine,48.85144449251261,2.364519420427195,Square Barye,48.850239695733976,2.3596105387349615,Park
512,Garde Républicaine,48.85144449251261,2.364519420427195,Bubar,48.85395038475273,2.3672452569007874,Wine Bar
513,Garde Républicaine,48.85144449251261,2.364519420427195,Place de la Bastille,48.85312443201169,2.3691415786743164,Plaza
514,Garde Républicaine,48.85144449251261,2.364519420427195,L'Enoteca,48.853416864533614,2.361671385262398,Italian Restaurant
515,Garde Républicaine,48.85144449251261,2.364519420427195,Pasta Linea,48.85524971348305,2.3634157029409995,Italian Restaurant
516,Garde Républicaine,48.85144449251261,2.364519420427195,Brasserie Bofinger,48.853914536392324,2.368043214082718,French Restaurant
517,Garde Républicaine,48.85144449251261,2.364519420427195,Opéra Bastille,48.85234082322526,2.3702841997146606,Opera House
518,Garde Républicaine,48.85144449251261,2.364519420427195,Chez Papa,48.85058963699485,2.368768648916627,Southwestern French Restaurant
519,Garde Républicaine,48.85144449251261,2.364519420427195,Place des Vosges,48.85562342675294,2.365531325340271,Plaza
520,Garde Républicaine,48.85144449251261,2.364519420427195,L'Area Café,48.854247991532944,2.367328600640753,Brazilian Restaurant
521,Garde Républicaine,48.85144449251261,2.364519420427195,Jardin de Sully,48.85498719619549,2.3640553433490066,Garden
522,Garde Républicaine,48.85144449251261,2.364519420427195,L'Ambroisie,48.85534,2.364355,French Restaurant
523,Garde Républicaine,48.85144449251261,2.364519420427195,Place du Marché Sainte-Catherine,48.85539047488832,2.3628169298171997,Plaza
524,Garde Républicaine,48.85144449251261,2.364519420427195,Au Bouquet Saint Paul,48.854619072894074,2.362799024277326,Gastropub
525,Garde Républicaine,48.85144449251261,2.364519420427195,Chez Mademoiselle,48.85429032043008,2.3598099177322163,Restaurant
526,Garde Républicaine,48.85144449251261,2.364519420427195,Le Pavillon Bastille,48.850855667731146,2.3700794951745485,Hotel
527,Garde Républicaine,48.85144449251261,2.364519420427195,Hôtel de Béthune-Sully,48.8549449512819,2.364075696543451,Historic Site
528,Garde Républicaine,48.85144449251261,2.364519420427195,Miss Manon,48.854654757084475,2.3626185166066054,Bakery
529,Garde Républicaine,48.85144449251261,2.364519420427195,Supersonic,48.85026572254583,2.3697217372873,Music Venue
530,Garde Républicaine,48.85144449251261,2.364519420427195,HOTEL DE JOBO,48.85543761945354,2.362076401178279,Hotel
531,Garde Républicaine,48.85144449251261,2.364519420427195,Hôtel Original Paris,48.854696379409795,2.3688413516715108,Hotel
532,Garde Républicaine,48.85144449251261,2.364519420427195,Yellow Tucan,48.854684,2.367288,Coffee Shop
533,Garde Républicaine,48.85144449251261,2.364519420427195,Pedra Alta,48.85457343512051,2.3687582449479803,Seafood Restaurant
534,Garde Républicaine,48.85144449251261,2.364519420427195,Lenôtre,48.85353786385404,2.36701105076752,Gourmet Shop
535,Garde Républicaine,48.85144449251261,2.364519420427195,Le Rusti,48.85414250211515,2.3673939748982593,Italian Restaurant
536,Garde Républicaine,48.85144449251261,2.364519420427195,Café de la Presse,48.850369460426656,2.368881539619165,Bar
537,Garde Républicaine,48.85144449251261,2.364519420427195,Savannah Coffee,48.85512471642688,2.3633047154536158,Coffee Shop
538,Garde Républicaine,48.85144449251261,2.364519420427195,Maison de Victor Hugo,48.85517319635984,2.3658665866902946,Historic Site
539,Garde Républicaine,48.85144449251261,2.364519420427195,Comptoir des Mers,48.854830682556106,2.3631150284516735,Seafood Restaurant
540,Garde Républicaine,48.85144449251261,2.364519420427195,Ban Sabai,48.85311840725063,2.367074893874337,Spa
541,Garde Républicaine,48.85144449251261,2.364519420427195,Gentle Gourmet Café,48.848913273086616,2.368272542953491,Vegetarian / Vegan Restaurant
542,Garde Républicaine,48.85144449251261,2.364519420427195,Objectif Bastille,48.848819,2.369701,Camera Store
543,Garde Républicaine,48.85144449251261,2.364519420427195,Dammann Frères,48.855861567283824,2.364829753752238,Tea Room
544,Garde Républicaine,48.85144449251261,2.364519420427195,Casa San Pablo,48.85537356647822,2.3619003036424235,Tapas Restaurant
545,Garde Républicaine,48.85144449251261,2.364519420427195,Ari's Bagels,48.849697692502275,2.370797070295465,Bagel Shop
546,Garde Républicaine,48.85144449251261,2.364519420427195,Galerie Nikki Diana Marquardt,48.855395769260916,2.363736927509308,Art Gallery
547,Garde Républicaine,48.85144449251261,2.364519420427195,Écluse de l'Arsenal,48.847286,2.365624,Canal Lock
548,Garde Républicaine,48.85144449251261,2.364519420427195,Hôtel Marceau Bastille,48.84899680817392,2.369871927037675,Hotel
549,Garde Républicaine,48.85144449251261,2.364519420427195,Monoprix,48.85426853,2.36333073,Supermarket
550,Garde Républicaine,48.85144449251261,2.364519420427195,Fromagerie Laurent Dubois,48.854999932727935,2.3620156060434487,Cheese Shop
551,Garde Républicaine,48.85144449251261,2.364519420427195,La Cidrerie du Marais,48.85527521296667,2.3618296629469007,French Restaurant
552,Garde Républicaine,48.85144449251261,2.364519420427195,L'Ardoise 86,48.85482,2.362543,Bistro
553,Garde Républicaine,48.85144449251261,2.364519420427195,Hôtel Turenne Le Marais,48.85508220217492,2.3633378712409416,Hotel
554,Garde Républicaine,48.85144449251261,2.364519420427195,Hôtel des Archevêques de Sens,48.85285088673232,2.3610052051883965,Historic Site
555,Garde Républicaine,48.85144449251261,2.364519420427195,Léon de Bruxelles,48.85415,2.36863659,Seafood Restaurant
556,Garde Républicaine,48.85144449251261,2.364519420427195,Amarante,48.84950122796759,2.369912814338863,French Restaurant
557,Garde Républicaine,48.85144449251261,2.364519420427195,Amorino,48.853415689377655,2.370150409699995,Ice Cream Shop
558,Garde Républicaine,48.85144449251261,2.364519420427195,Paul,48.85484360945126,2.36231713453927,Bakery
559,Garde Républicaine,48.85144449251261,2.364519420427195,La Seine,48.850036070533356,2.368612048680013,Gastropub
560,Garde Républicaine,48.85144449251261,2.364519420427195,Opéra BD,48.85378,2.367547,Bookstore
561,Garde Républicaine,48.85144449251261,2.364519420427195,Réunion des Musées Nationaux,48.84795035012013,2.36799659361501,Museum
562,Maria Loca,48.852122537323886,2.365666920222009,Homies,48.85354190495365,2.364448383450508,Tapas Restaurant
563,Maria Loca,48.852122537323886,2.365666920222009,Le Temps des Cerises,48.85255362794662,2.364194654389621,French Restaurant
564,Maria Loca,48.852122537323886,2.365666920222009,Café Ginger,48.852887,2.367354,Vegetarian / Vegan Restaurant
565,Maria Loca,48.852122537323886,2.365666920222009,Sherry Butt,48.85326738634583,2.3641137778759003,Cocktail Bar
566,Maria Loca,48.852122537323886,2.365666920222009,Keep Cool,48.85208479878069,2.3633714946624815,Gym
567,Maria Loca,48.852122537323886,2.365666920222009,Garde Républicaine,48.85144449251261,2.364519420427195,Government Building
568,Maria Loca,48.852122537323886,2.365666920222009,Maria Loca,48.852122537323886,2.365666920222009,Cocktail Bar
569,Maria Loca,48.852122537323886,2.365666920222009,Vins des Pyrénées,48.85371248516514,2.3644620724780503,French Restaurant
570,Maria Loca,48.852122537323886,2.365666920222009,Gaspard de la Nuit,48.85410155334177,2.3673950733099174,French Restaurant
571,Maria Loca,48.852122537323886,2.365666920222009,Le Dindon en Laisse,48.85320120383447,2.36406147480011,French Restaurant
572,Maria Loca,48.852122537323886,2.365666920222009,Boulangerie Saint-Antoine,48.85363271223415,2.365220189094543,Bakery
573,Maria Loca,48.852122537323886,2.365666920222009,La Moustache Blanche,48.85452477876369,2.3673031736565684,Beer Store
574,Maria Loca,48.852122537323886,2.365666920222009,Chez Margot,48.85181106403719,2.3645978263169347,French Restaurant
575,Maria Loca,48.852122537323886,2.365666920222009,Frog Revolution,48.853788104716685,2.368305450632397,Pub
576,Maria Loca,48.852122537323886,2.365666920222009,Bubar,48.85395038475273,2.3672452569007874,Wine Bar
577,Maria Loca,48.852122537323886,2.365666920222009,Pavillon de l'Arsenal,48.85065016214532,2.362340470390449,Museum
578,Maria Loca,48.852122537323886,2.365666920222009,Place de la Bastille,48.85312443201169,2.3691415786743164,Plaza
579,Maria Loca,48.852122537323886,2.365666920222009,Brasserie Bofinger,48.853914536392324,2.368043214082718,French Restaurant
580,Maria Loca,48.852122537323886,2.365666920222009,Sushi Shop,48.8540125503199,2.364544483389482,Sushi Restaurant
581,Maria Loca,48.852122537323886,2.365666920222009,La Cerise sur la Pizza,48.8540374685859,2.362342849373817,Pizza Place
582,Maria Loca,48.852122537323886,2.365666920222009,Opéra Bastille,48.85234082322526,2.3702841997146606,Opera House
583,Maria Loca,48.852122537323886,2.365666920222009,Jardins du Port de l'Arsenal,48.850165408086845,2.368031787395834,Park
584,Maria Loca,48.852122537323886,2.365666920222009,Place des Vosges,48.85562342675294,2.365531325340271,Plaza
585,Maria Loca,48.852122537323886,2.365666920222009,Hôtel Original Paris,48.854696379409795,2.3688413516715108,Hotel
586,Maria Loca,48.852122537323886,2.365666920222009,Le Chanard,48.8529120567913,2.361544888389472,French Restaurant
587,Maria Loca,48.852122537323886,2.365666920222009,Pedra Alta,48.85457343512051,2.3687582449479803,Seafood Restaurant
588,Maria Loca,48.852122537323886,2.365666920222009,Yellow Tucan,48.854684,2.367288,Coffee Shop
589,Maria Loca,48.852122537323886,2.365666920222009,Pasta Linea,48.85524971348305,2.3634157029409995,Italian Restaurant
590,Maria Loca,48.852122537323886,2.365666920222009,Lenôtre,48.85353786385404,2.36701105076752,Gourmet Shop
591,Maria Loca,48.852122537323886,2.365666920222009,L'Ambroisie,48.85534,2.364355,French Restaurant
592,Maria Loca,48.852122537323886,2.365666920222009,Chez Papa,48.85058963699485,2.368768648916627,Southwestern French Restaurant
593,Maria Loca,48.852122537323886,2.365666920222009,Jardin de Sully,48.85498719619549,2.3640553433490066,Garden
594,Maria Loca,48.852122537323886,2.365666920222009,Village Saint-Paul,48.85368918749588,2.3615241050720215,Pedestrian Plaza
595,Maria Loca,48.852122537323886,2.365666920222009,Le Pavillon Bastille,48.850855667731146,2.3700794951745485,Hotel
596,Maria Loca,48.852122537323886,2.365666920222009,Hôtel de Béthune-Sully,48.8549449512819,2.364075696543451,Historic Site
597,Maria Loca,48.852122537323886,2.365666920222009,Maison de Victor Hugo,48.85517319635984,2.3658665866902946,Historic Site
598,Maria Loca,48.852122537323886,2.365666920222009,Place du Marché Sainte-Catherine,48.85539047488832,2.3628169298171997,Plaza
599,Maria Loca,48.852122537323886,2.365666920222009,Supersonic,48.85026572254583,2.3697217372873,Music Venue
600,Maria Loca,48.852122537323886,2.365666920222009,Au Bouquet Saint Paul,48.854619072894074,2.362799024277326,Gastropub
601,Maria Loca,48.852122537323886,2.365666920222009,L'Enoteca,48.853416864533614,2.361671385262398,Italian Restaurant
602,Maria Loca,48.852122537323886,2.365666920222009,Les Nautes,48.85223139940081,2.3603063821792603,Gastropub
603,Maria Loca,48.852122537323886,2.365666920222009,Miss Manon,48.854654757084475,2.3626185166066054,Bakery
604,Maria Loca,48.852122537323886,2.365666920222009,HOTEL DE JOBO,48.85543761945354,2.362076401178279,Hotel
605,Maria Loca,48.852122537323886,2.365666920222009,Street Bangkok Canteen & Bar,48.85418069606821,2.3710834980010986,Thai Restaurant
606,Maria Loca,48.852122537323886,2.365666920222009,Dammann Frères,48.855861567283824,2.364829753752238,Tea Room
607,Maria Loca,48.852122537323886,2.365666920222009,La Mangerie,48.8557965430479,2.362733014737857,Tapas Restaurant
608,Maria Loca,48.852122537323886,2.365666920222009,Café de la Presse,48.850369460426656,2.368881539619165,Bar
609,Maria Loca,48.852122537323886,2.365666920222009,Thai Spices,48.85273297322603,2.3603588795363155,Thai Restaurant
610,Maria Loca,48.852122537323886,2.365666920222009,Chocolaterie Joséphine Vannier,48.85590203900677,2.367756939475856,Chocolate Shop
611,Maria Loca,48.852122537323886,2.365666920222009,Savannah Coffee,48.85512471642688,2.3633047154536158,Coffee Shop
612,Maria Loca,48.852122537323886,2.365666920222009,Comptoir des Mers,48.854830682556106,2.3631150284516735,Seafood Restaurant
613,Maria Loca,48.852122537323886,2.365666920222009,Amorino,48.85638977779494,2.364113819785416,Ice Cream Shop
614,Maria Loca,48.852122537323886,2.365666920222009,Carette,48.856304628258506,2.3654937744140625,Tea Room
615,Maria Loca,48.852122537323886,2.365666920222009,Hôtel Pavillon de la Reine,48.856386591661504,2.366008934683876,Hotel
616,Maria Loca,48.852122537323886,2.365666920222009,Pizza Julia,48.85160303116239,2.3719783006728337,Pizza Place
617,Maria Loca,48.852122537323886,2.365666920222009,Yachts de Paris,48.84791426220394,2.3633265495300293,Boat or Ferry
618,Maria Loca,48.852122537323886,2.365666920222009,Chez Mademoiselle,48.85429032043008,2.3598099177322163,Restaurant
619,Maria Loca,48.852122537323886,2.365666920222009,Fuji Yaki,48.85427243289901,2.3713255509436966,Japanese Restaurant
620,Maria Loca,48.852122537323886,2.365666920222009,Babylone,48.854704,2.371046,Falafel Restaurant
621,Maria Loca,48.852122537323886,2.365666920222009,Galerie Nikki Diana Marquardt,48.855395769260916,2.363736927509308,Art Gallery
622,Maria Loca,48.852122537323886,2.365666920222009,Square Barye,48.850239695733976,2.3596105387349615,Park
623,Maria Loca,48.852122537323886,2.365666920222009,Objectif Bastille,48.848819,2.369701,Camera Store
624,Maria Loca,48.852122537323886,2.365666920222009,Casa San Pablo,48.85537356647822,2.3619003036424235,Tapas Restaurant
625,Maria Loca,48.852122537323886,2.365666920222009,Les Bonnes Sœurs,48.85600439835367,2.366941119545712,French Restaurant
626,Maria Loca,48.852122537323886,2.365666920222009,The Brooklyn Pizzeria,48.85590797137251,2.3684435626251457,Pizza Place
627,Maria Loca,48.852122537323886,2.365666920222009,Léon de Bruxelles,48.85415,2.36863659,Seafood Restaurant
628,Maria Loca,48.852122537323886,2.365666920222009,Gentle Gourmet Café,48.848913273086616,2.368272542953491,Vegetarian / Vegan Restaurant
629,Maria Loca,48.852122537323886,2.365666920222009,Monoprix,48.85426853,2.36333073,Supermarket
630,Maria Loca,48.852122537323886,2.365666920222009,Ben's,48.85283202924561,2.371070813427679,Burger Joint
631,Maria Loca,48.852122537323886,2.365666920222009,Fromagerie Laurent Dubois,48.854999932727935,2.3620156060434487,Cheese Shop
632,Maria Loca,48.852122537323886,2.365666920222009,Bistrot des Vosges,48.85569718910249,2.368231639266014,French Restaurant
633,Maria Loca,48.852122537323886,2.365666920222009,Hôtel Marceau Bastille,48.84899680817392,2.369871927037675,Hotel
634,Maria Loca,48.852122537323886,2.365666920222009,La Cidrerie du Marais,48.85527521296667,2.3618296629469007,French Restaurant
635,Maria Loca,48.852122537323886,2.365666920222009,Le Lèche-Vin,48.854937277916044,2.37060953938688,Bar
636,Maria Loca,48.852122537323886,2.365666920222009,L'Ardoise 86,48.85482,2.362543,Bistro
637,Maria Loca,48.852122537323886,2.365666920222009,Quatre Amis,48.852141561125165,2.3712941407254795,Szechuan Restaurant
638,Maria Loca,48.852122537323886,2.365666920222009,Hôtel Turenne Le Marais,48.85508220217492,2.3633378712409416,Hotel
639,Maria Loca,48.852122537323886,2.365666920222009,Khao Thai,48.855679548743396,2.3621634174650668,Asian Restaurant
640,Maria Loca,48.852122537323886,2.365666920222009,Le Tabarin,48.85588860529345,2.3690490511479587,French Restaurant
641,Maria Loca,48.852122537323886,2.365666920222009,Amorino,48.853415689377655,2.370150409699995,Ice Cream Shop
642,Maria Loca,48.852122537323886,2.365666920222009,La Carte des Vins,48.85581537830124,2.368633369486338,Wine Shop
643,Maria Loca,48.852122537323886,2.365666920222009,Bagelstein,48.85429872583163,2.371346315730489,Bagel Shop
644,Maria Loca,48.852122537323886,2.365666920222009,Breakfast in America,48.855473,2.361279,Diner
645,Maria Loca,48.852122537323886,2.365666920222009,Café Hugo,48.8559924395967,2.366606556957324,Café
646,Maria Loca,48.852122537323886,2.365666920222009,Le Beaumarchais,48.85514431276109,2.368605551961227,French Restaurant
647,Maria Loca,48.852122537323886,2.365666920222009,Carhartt WIP,48.852430729896305,2.372143282008732,Clothing Store
648,Maria Loca,48.852122537323886,2.365666920222009,Maison Landemaine,48.855955,2.368805,Bakery
649,Maria Loca,48.852122537323886,2.365666920222009,Hôtel des Archevêques de Sens,48.85285088673232,2.3610052051883965,Historic Site
650,Maria Loca,48.852122537323886,2.365666920222009,Paul,48.85484360945126,2.36231713453927,Bakery
651,Maria Loca,48.852122537323886,2.365666920222009,L'Ange 20,48.85588954797418,2.3673008557230157,French Restaurant
652,Maria Loca,48.852122537323886,2.365666920222009,Juice Lab,48.856288745427406,2.365609109401703,Juice Bar
653,Vins des Pyrénées,48.85371248516514,2.3644620724780503,Homies,48.85354190495365,2.364448383450508,Tapas Restaurant
654,Vins des Pyrénées,48.85371248516514,2.3644620724780503,Le Temps des Cerises,48.85255362794662,2.364194654389621,French Restaurant
655,Vins des Pyrénées,48.85371248516514,2.3644620724780503,Sherry Butt,48.85326738634583,2.3641137778759003,Cocktail Bar
656,Vins des Pyrénées,48.85371248516514,2.3644620724780503,Place des Vosges,48.85562342675294,2.365531325340271,Plaza
657,Vins des Pyrénées,48.85371248516514,2.3644620724780503,Pasta Linea,48.85524971348305,2.3634157029409995,Italian Restaurant
658,Vins des Pyrénées,48.85371248516514,2.3644620724780503,Keep Cool,48.85208479878069,2.3633714946624815,Gym
659,Vins des Pyrénées,48.85371248516514,2.3644620724780503,La Moustache Blanche,48.85452477876369,2.3673031736565684,Beer Store
660,Vins des Pyrénées,48.85371248516514,2.3644620724780503,La Cerise sur la Pizza,48.8540374685859,2.362342849373817,Pizza Place
661,Vins des Pyrénées,48.85371248516514,2.3644620724780503,Gaspard de la Nuit,48.85410155334177,2.3673950733099174,French Restaurant
662,Vins des Pyrénées,48.85371248516514,2.3644620724780503,Café Ginger,48.852887,2.367354,Vegetarian / Vegan Restaurant
663,Vins des Pyrénées,48.85371248516514,2.3644620724780503,L'Ambroisie,48.85534,2.364355,French Restaurant
664,Vins des Pyrénées,48.85371248516514,2.3644620724780503,Maria Loca,48.852122537323886,2.365666920222009,Cocktail Bar
665,Vins des Pyrénées,48.85371248516514,2.3644620724780503,Place du Marché Sainte-Catherine,48.85539047488832,2.3628169298171997,Plaza
666,Vins des Pyrénées,48.85371248516514,2.3644620724780503,Vins des Pyrénées,48.85371248516514,2.3644620724780503,French Restaurant
667,Vins des Pyrénées,48.85371248516514,2.3644620724780503,HOTEL DE JOBO,48.85543761945354,2.362076401178279,Hotel
668,Vins des Pyrénées,48.85371248516514,2.3644620724780503,La Mangerie,48.8557965430479,2.362733014737857,Tapas Restaurant
669,Vins des Pyrénées,48.85371248516514,2.3644620724780503,Jardin de Sully,48.85498719619549,2.3640553433490066,Garden
670,Vins des Pyrénées,48.85371248516514,2.3644620724780503,Le Dindon en Laisse,48.85320120383447,2.36406147480011,French Restaurant
671,Vins des Pyrénées,48.85371248516514,2.3644620724780503,Boulangerie Saint-Antoine,48.85363271223415,2.365220189094543,Bakery
672,Vins des Pyrénées,48.85371248516514,2.3644620724780503,Village Saint-Paul,48.85368918749588,2.3615241050720215,Pedestrian Plaza
673,Vins des Pyrénées,48.85371248516514,2.3644620724780503,Garde Républicaine,48.85144449251261,2.364519420427195,Government Building
674,Vins des Pyrénées,48.85371248516514,2.3644620724780503,Dammann Frères,48.855861567283824,2.364829753752238,Tea Room
675,Vins des Pyrénées,48.85371248516514,2.3644620724780503,Bubar,48.85395038475273,2.3672452569007874,Wine Bar
676,Vins des Pyrénées,48.85371248516514,2.3644620724780503,Maison de Victor Hugo,48.85517319635984,2.3658665866902946,Historic Site
677,Vins des Pyrénées,48.85371248516514,2.3644620724780503,Hôtel de Béthune-Sully,48.8549449512819,2.364075696543451,Historic Site
678,Vins des Pyrénées,48.85371248516514,2.3644620724780503,Le Chanard,48.8529120567913,2.361544888389472,French Restaurant
679,Vins des Pyrénées,48.85371248516514,2.3644620724780503,Au Bouquet Saint Paul,48.854619072894074,2.362799024277326,Gastropub
680,Vins des Pyrénées,48.85371248516514,2.3644620724780503,Amorino,48.85638977779494,2.364113819785416,Ice Cream Shop
681,Vins des Pyrénées,48.85371248516514,2.3644620724780503,Miss Manon,48.854654757084475,2.3626185166066054,Bakery
682,Vins des Pyrénées,48.85371248516514,2.3644620724780503,Savannah Coffee,48.85512471642688,2.3633047154536158,Coffee Shop
683,Vins des Pyrénées,48.85371248516514,2.3644620724780503,Chez Margot,48.85181106403719,2.3645978263169347,French Restaurant
684,Vins des Pyrénées,48.85371248516514,2.3644620724780503,L'Area Café,48.854247991532944,2.367328600640753,Brazilian Restaurant
685,Vins des Pyrénées,48.85371248516514,2.3644620724780503,Frog Revolution,48.853788104716685,2.368305450632397,Pub
686,Vins des Pyrénées,48.85371248516514,2.3644620724780503,Yellow Tucan,48.854684,2.367288,Coffee Shop
687,Vins des Pyrénées,48.85371248516514,2.3644620724780503,Sushi Shop,48.8540125503199,2.364544483389482,Sushi Restaurant
688,Vins des Pyrénées,48.85371248516514,2.3644620724780503,Carette,48.856304628258506,2.3654937744140625,Tea Room
689,Vins des Pyrénées,48.85371248516514,2.3644620724780503,L'Enoteca,48.853416864533614,2.361671385262398,Italian Restaurant
690,Vins des Pyrénées,48.85371248516514,2.3644620724780503,Brasserie Bofinger,48.853914536392324,2.368043214082718,French Restaurant
691,Vins des Pyrénées,48.85371248516514,2.3644620724780503,Galerie Nikki Diana Marquardt,48.855395769260916,2.363736927509308,Art Gallery
692,Vins des Pyrénées,48.85371248516514,2.3644620724780503,Hôtel Pavillon de la Reine,48.856386591661504,2.366008934683876,Hotel
693,Vins des Pyrénées,48.85371248516514,2.3644620724780503,Comptoir des Mers,48.854830682556106,2.3631150284516735,Seafood Restaurant
694,Vins des Pyrénées,48.85371248516514,2.3644620724780503,Casa San Pablo,48.85537356647822,2.3619003036424235,Tapas Restaurant
695,Vins des Pyrénées,48.85371248516514,2.3644620724780503,Hôtel Original Paris,48.854696379409795,2.3688413516715108,Hotel
696,Vins des Pyrénées,48.85371248516514,2.3644620724780503,Le Rusti,48.85414250211515,2.3673939748982593,Italian Restaurant
697,Vins des Pyrénées,48.85371248516514,2.3644620724780503,Chez Mademoiselle,48.85429032043008,2.3598099177322163,Restaurant
698,Vins des Pyrénées,48.85371248516514,2.3644620724780503,Pedra Alta,48.85457343512051,2.3687582449479803,Seafood Restaurant
699,Vins des Pyrénées,48.85371248516514,2.3644620724780503,Grand Hôtel Malher,48.85565493925689,2.3610673237119957,Hotel
700,Vins des Pyrénées,48.85371248516514,2.3644620724780503,Chocolaterie Joséphine Vannier,48.85590203900677,2.367756939475856,Chocolate Shop
701,Vins des Pyrénées,48.85371248516514,2.3644620724780503,YellowKorner,48.8567703,2.36360609,Art Gallery
702,Vins des Pyrénées,48.85371248516514,2.3644620724780503,Fromagerie Laurent Dubois,48.854999932727935,2.3620156060434487,Cheese Shop
703,Vins des Pyrénées,48.85371248516514,2.3644620724780503,Popelini,48.85665757876075,2.3642975091934204,Pastry Shop
704,Vins des Pyrénées,48.85371248516514,2.3644620724780503,Chez Janou,48.85664435397839,2.36724340761729,Provençal Restaurant
705,Vins des Pyrénées,48.85371248516514,2.3644620724780503,Bistrot de l'Oulette,48.855543576518954,2.367340331440506,French Restaurant
706,Vins des Pyrénées,48.85371248516514,2.3644620724780503,La Cidrerie du Marais,48.85527521296667,2.3618296629469007,French Restaurant
707,Vins des Pyrénées,48.85371248516514,2.3644620724780503,Place de la Bastille,48.85312443201169,2.3691415786743164,Plaza
708,Vins des Pyrénées,48.85371248516514,2.3644620724780503,Pavillon de l'Arsenal,48.85065016214532,2.362340470390449,Museum
709,Vins des Pyrénées,48.85371248516514,2.3644620724780503,Thai Spices,48.85273297322603,2.3603588795363155,Thai Restaurant
710,Vins des Pyrénées,48.85371248516514,2.3644620724780503,Lenôtre,48.85353786385404,2.36701105076752,Gourmet Shop
711,Vins des Pyrénées,48.85371248516514,2.3644620724780503,Les Nautes,48.85223139940081,2.3603063821792603,Gastropub
712,Vins des Pyrénées,48.85371248516514,2.3644620724780503,Les Bonnes Sœurs,48.85600439835367,2.366941119545712,French Restaurant
713,Vins des Pyrénées,48.85371248516514,2.3644620724780503,Khao Thai,48.855679548743396,2.3621634174650668,Asian Restaurant
714,Vins des Pyrénées,48.85371248516514,2.3644620724780503,L'Ardoise 86,48.85482,2.362543,Bistro
715,Vins des Pyrénées,48.85371248516514,2.3644620724780503,Au Petit Thai,48.855655063264095,2.3601878078479244,Thai Restaurant
716,Vins des Pyrénées,48.85371248516514,2.3644620724780503,LECLAIREUR Sévigné,48.85734113331375,2.3632732457190597,Clothing Store
717,Vins des Pyrénées,48.85371248516514,2.3644620724780503,Hôtel Turenne Le Marais,48.85508220217492,2.3633378712409416,Hotel
718,Vins des Pyrénées,48.85371248516514,2.3644620724780503,Maison Européenne de la Photographie,48.85512804426985,2.358947843313217,Art Museum
719,Vins des Pyrénées,48.85371248516514,2.3644620724780503,Place Saint-Paul,48.85540137038666,2.360181672202446,Plaza
720,Vins des Pyrénées,48.85371248516514,2.3644620724780503,Le Petit Marché,48.85725921677337,2.3662138652687053,French Restaurant
721,Vins des Pyrénées,48.85371248516514,2.3644620724780503,COS,48.85657238568342,2.3606406149144887,Clothing Store
722,Vins des Pyrénées,48.85371248516514,2.3644620724780503,La Mouette Rieuse,48.85670853893964,2.361315623158024,Bookstore
723,Vins des Pyrénées,48.85371248516514,2.3644620724780503,Pitzman,48.855853475354756,2.360295479688141,Falafel Restaurant
724,Vins des Pyrénées,48.85371248516514,2.3644620724780503,L'Éclair de Génie,48.856254362311105,2.3606137291477016,Pastry Shop
725,Vins des Pyrénées,48.85371248516514,2.3644620724780503,The Brooklyn Pizzeria,48.85590797137251,2.3684435626251457,Pizza Place
726,Vins des Pyrénées,48.85371248516514,2.3644620724780503,Le Loir dans la Théière,48.85634089988964,2.3610769355582812,Tea Room
727,Vins des Pyrénées,48.85371248516514,2.3644620724780503,Ban Sabai,48.85311840725063,2.367074893874337,Spa
728,Vins des Pyrénées,48.85371248516514,2.3644620724780503,Opéra Bastille,48.85234082322526,2.3702841997146606,Opera House
729,Vins des Pyrénées,48.85371248516514,2.3644620724780503,Breakfast in America,48.855473,2.361279,Diner
730,Vins des Pyrénées,48.85371248516514,2.3644620724780503,Monoprix,48.85426853,2.36333073,Supermarket
731,Vins des Pyrénées,48.85371248516514,2.3644620724780503,Jardin de l'Hôtel de Sens,48.85384194954609,2.3584037951179067,Garden
732,Vins des Pyrénées,48.85371248516514,2.3644620724780503,Rivolux,48.85559040054201,2.35941883896175,Bar
733,Vins des Pyrénées,48.85371248516514,2.3644620724780503,Bistrot des Vosges,48.85569718910249,2.368231639266014,French Restaurant
734,Vins des Pyrénées,48.85371248516514,2.3644620724780503,Le Piment,48.85640481174577,2.362565277771221,Bar
735,Vins des Pyrénées,48.85371248516514,2.3644620724780503,Acqua di Parma,48.85657993366014,2.3638540722123382,Cosmetics Shop
736,Vins des Pyrénées,48.85371248516514,2.3644620724780503,Street Bangkok Canteen & Bar,48.85418069606821,2.3710834980010986,Thai Restaurant
737,Vins des Pyrénées,48.85371248516514,2.3644620724780503,Marché Bastille,48.856029201501194,2.3703046826319336,Market
738,Vins des Pyrénées,48.85371248516514,2.3644620724780503,Polka Galerie,48.857816622165444,2.366518341304415,Art Gallery
739,Vins des Pyrénées,48.85371248516514,2.3644620724780503,Metropolitain,48.8547958687542,2.358438544170859,French Restaurant
740,Vins des Pyrénées,48.85371248516514,2.3644620724780503,Murciano Boulangerie et Patisserie,48.85698355286805,2.3597894794820027,Bakery
741,Vins des Pyrénées,48.85371248516514,2.3644620724780503,Le Moulin de Rosa,48.857098833316606,2.364334074850337,Bakery
742,Vins des Pyrénées,48.85371248516514,2.3644620724780503,Café Hugo,48.8559924395967,2.366606556957324,Café
743,Vins des Pyrénées,48.85371248516514,2.3644620724780503,Babylone,48.854704,2.371046,Falafel Restaurant
744,Vins des Pyrénées,48.85371248516514,2.3644620724780503,La Carte des Vins,48.85581537830124,2.368633369486338,Wine Shop
745,Vins des Pyrénées,48.85371248516514,2.3644620724780503,Le Petit Italien,48.85774295923826,2.366427120931592,Italian Restaurant
746,Vins des Pyrénées,48.85371248516514,2.3644620724780503,Le Tabarin,48.85588860529345,2.3690490511479587,French Restaurant
747,Vins des Pyrénées,48.85371248516514,2.3644620724780503,Léon de Bruxelles,48.85415,2.36863659,Seafood Restaurant
748,Vins des Pyrénées,48.85371248516514,2.3644620724780503,Café des Musées,48.858063,2.364331,French Restaurant
749,Vins des Pyrénées,48.85371248516514,2.3644620724780503,Jardins du Port de l'Arsenal,48.850165408086845,2.368031787395834,Park
750,Vins des Pyrénées,48.85371248516514,2.3644620724780503,El Ganso,48.85683986455612,2.3600554342273647,Men's Store
751,Vins des Pyrénées,48.85371248516514,2.3644620724780503,Paul,48.85484360945126,2.36231713453927,Bakery
752,Vins des Pyrénées,48.85371248516514,2.3644620724780503,théobul,48.85452879346638,2.3711332873106077,Bubble Tea Shop
753,Le Chanard,48.8529120567913,2.361544888389472,Le Temps des Cerises,48.85255362794662,2.364194654389621,French Restaurant
754,Le Chanard,48.8529120567913,2.361544888389472,Sherry Butt,48.85326738634583,2.3641137778759003,Cocktail Bar
755,Le Chanard,48.8529120567913,2.361544888389472,Chez Mademoiselle,48.85429032043008,2.3598099177322163,Restaurant
756,Le Chanard,48.8529120567913,2.361544888389472,Keep Cool,48.85208479878069,2.3633714946624815,Gym
757,Le Chanard,48.8529120567913,2.361544888389472,Homies,48.85354190495365,2.364448383450508,Tapas Restaurant
758,Le Chanard,48.8529120567913,2.361544888389472,La Cerise sur la Pizza,48.8540374685859,2.362342849373817,Pizza Place
759,Le Chanard,48.8529120567913,2.361544888389472,Les Nautes,48.85223139940081,2.3603063821792603,Gastropub
760,Le Chanard,48.8529120567913,2.361544888389472,Le Chanard,48.8529120567913,2.361544888389472,French Restaurant
761,Le Chanard,48.8529120567913,2.361544888389472,Village Saint-Paul,48.85368918749588,2.3615241050720215,Pedestrian Plaza
762,Le Chanard,48.8529120567913,2.361544888389472,Vins des Pyrénées,48.85371248516514,2.3644620724780503,French Restaurant
763,Le Chanard,48.8529120567913,2.361544888389472,Le Dindon en Laisse,48.85320120383447,2.36406147480011,French Restaurant
764,Le Chanard,48.8529120567913,2.361544888389472,Thai Spices,48.85273297322603,2.3603588795363155,Thai Restaurant
765,Le Chanard,48.8529120567913,2.361544888389472,Jardin de l'Hôtel de Sens,48.85384194954609,2.3584037951179067,Garden
766,Le Chanard,48.8529120567913,2.361544888389472,Pavillon de l'Arsenal,48.85065016214532,2.362340470390449,Museum
767,Le Chanard,48.8529120567913,2.361544888389472,HOTEL DE JOBO,48.85543761945354,2.362076401178279,Hotel
768,Le Chanard,48.8529120567913,2.361544888389472,Garde Républicaine,48.85144449251261,2.364519420427195,Government Building
769,Le Chanard,48.8529120567913,2.361544888389472,Pasta Linea,48.85524971348305,2.3634157029409995,Italian Restaurant
770,Le Chanard,48.8529120567913,2.361544888389472,Au Bouquet Saint Paul,48.854619072894074,2.362799024277326,Gastropub
771,Le Chanard,48.8529120567913,2.361544888389472,Miss Manon,48.854654757084475,2.3626185166066054,Bakery
772,Le Chanard,48.8529120567913,2.361544888389472,Place du Marché Sainte-Catherine,48.85539047488832,2.3628169298171997,Plaza
773,Le Chanard,48.8529120567913,2.361544888389472,Maison Européenne de la Photographie,48.85512804426985,2.358947843313217,Art Museum
774,Le Chanard,48.8529120567913,2.361544888389472,L'Enoteca,48.853416864533614,2.361671385262398,Italian Restaurant
775,Le Chanard,48.8529120567913,2.361544888389472,Grand Hôtel Malher,48.85565493925689,2.3610673237119957,Hotel
776,Le Chanard,48.8529120567913,2.361544888389472,La Mangerie,48.8557965430479,2.362733014737857,Tapas Restaurant
777,Le Chanard,48.8529120567913,2.361544888389472,Maria Loca,48.852122537323886,2.365666920222009,Cocktail Bar
778,Le Chanard,48.8529120567913,2.361544888389472,Chez Margot,48.85181106403719,2.3645978263169347,French Restaurant
779,Le Chanard,48.8529120567913,2.361544888389472,Boulangerie Saint-Antoine,48.85363271223415,2.365220189094543,Bakery
780,Le Chanard,48.8529120567913,2.361544888389472,Au Petit Thai,48.855655063264095,2.3601878078479244,Thai Restaurant
781,Le Chanard,48.8529120567913,2.361544888389472,Casa San Pablo,48.85537356647822,2.3619003036424235,Tapas Restaurant
782,Le Chanard,48.8529120567913,2.361544888389472,Metropolitain,48.8547958687542,2.358438544170859,French Restaurant
783,Le Chanard,48.8529120567913,2.361544888389472,Square Barye,48.850239695733976,2.3596105387349615,Park
784,Le Chanard,48.8529120567913,2.361544888389472,Place Saint-Paul,48.85540137038666,2.360181672202446,Plaza
785,Le Chanard,48.8529120567913,2.361544888389472,Jardin de Sully,48.85498719619549,2.3640553433490066,Garden
786,Le Chanard,48.8529120567913,2.361544888389472,Sushi Shop,48.8540125503199,2.364544483389482,Sushi Restaurant
787,Le Chanard,48.8529120567913,2.361544888389472,Comptoir des Mers,48.854830682556106,2.3631150284516735,Seafood Restaurant
788,Le Chanard,48.8529120567913,2.361544888389472,L'Ambroisie,48.85534,2.364355,French Restaurant
789,Le Chanard,48.8529120567913,2.361544888389472,Berthillon,48.85170517997717,2.3567061871290207,Ice Cream Shop
790,Le Chanard,48.8529120567913,2.361544888389472,Savannah Coffee,48.85512471642688,2.3633047154536158,Coffee Shop
791,Le Chanard,48.8529120567913,2.361544888389472,Vingt Vins d'Art,48.85521431940058,2.3579396506069488,Wine Bar
792,Le Chanard,48.8529120567913,2.361544888389472,Hôtel de Béthune-Sully,48.8549449512819,2.364075696543451,Historic Site
793,Le Chanard,48.8529120567913,2.361544888389472,Fromagerie Laurent Dubois,48.854999932727935,2.3620156060434487,Cheese Shop
794,Le Chanard,48.8529120567913,2.361544888389472,Rivolux,48.85559040054201,2.35941883896175,Bar
795,Le Chanard,48.8529120567913,2.361544888389472,La Cidrerie du Marais,48.85527521296667,2.3618296629469007,French Restaurant
796,Le Chanard,48.8529120567913,2.361544888389472,Place des Vosges,48.85562342675294,2.365531325340271,Plaza
797,Le Chanard,48.8529120567913,2.361544888389472,Pitzman,48.855853475354756,2.360295479688141,Falafel Restaurant
798,Le Chanard,48.8529120567913,2.361544888389472,Pom'Cannelle,48.85200671994731,2.3567263401625396,Ice Cream Shop
799,Le Chanard,48.8529120567913,2.361544888389472,COS,48.85657238568342,2.3606406149144887,Clothing Store
800,Le Chanard,48.8529120567913,2.361544888389472,Amorino,48.85638977779494,2.364113819785416,Ice Cream Shop
801,Le Chanard,48.8529120567913,2.361544888389472,Café Ginger,48.852887,2.367354,Vegetarian / Vegan Restaurant
802,Le Chanard,48.8529120567913,2.361544888389472,Cité Internationale des Arts,48.85400983891493,2.3567382656184863,Cultural Center
803,Le Chanard,48.8529120567913,2.361544888389472,L'Éclair de Génie,48.856254362311105,2.3606137291477016,Pastry Shop
804,Le Chanard,48.8529120567913,2.361544888389472,L'Ardoise 86,48.85482,2.362543,Bistro
805,Le Chanard,48.8529120567913,2.361544888389472,Khao Thai,48.855679548743396,2.3621634174650668,Asian Restaurant
806,Le Chanard,48.8529120567913,2.361544888389472,La Moustache Blanche,48.85452477876369,2.3673031736565684,Beer Store
807,Le Chanard,48.8529120567913,2.361544888389472,Breakfast in America,48.855473,2.361279,Diner
808,Le Chanard,48.8529120567913,2.361544888389472,Galerie Nikki Diana Marquardt,48.855395769260916,2.363736927509308,Art Gallery
809,Le Chanard,48.8529120567913,2.361544888389472,Dammann Frères,48.855861567283824,2.364829753752238,Tea Room
810,Le Chanard,48.8529120567913,2.361544888389472,La Mouette Rieuse,48.85670853893964,2.361315623158024,Bookstore
811,Le Chanard,48.8529120567913,2.361544888389472,Le Loir dans la Théière,48.85634089988964,2.3610769355582812,Tea Room
812,Le Chanard,48.8529120567913,2.361544888389472,Gaspard de la Nuit,48.85410155334177,2.3673950733099174,French Restaurant
813,Le Chanard,48.8529120567913,2.361544888389472,Au Bourguignon du Marais,48.855609413503736,2.357703652114703,Burgundian Restaurant
814,Le Chanard,48.8529120567913,2.361544888389472,Monoprix,48.85426853,2.36333073,Supermarket
815,Le Chanard,48.8529120567913,2.361544888389472,La Caféothèque de Paris,48.85419716409349,2.355713729818569,Coffee Shop
816,Le Chanard,48.8529120567913,2.361544888389472,Pamela Popo,48.85574916092363,2.3569190697806426,French Restaurant
817,Le Chanard,48.8529120567913,2.361544888389472,Autour du Saumon,48.85558694633289,2.3578015122239786,Scandinavian Restaurant
818,Le Chanard,48.8529120567913,2.361544888389472,Murciano Boulangerie et Patisserie,48.85698355286805,2.3597894794820027,Bakery
819,Le Chanard,48.8529120567913,2.361544888389472,Amorino,48.85209979756604,2.3558344105060582,Ice Cream Shop
820,Le Chanard,48.8529120567913,2.361544888389472,YellowKorner,48.8567703,2.36360609,Art Gallery
821,Le Chanard,48.8529120567913,2.361544888389472,Mémorial de la Shoah,48.854825897257065,2.3562544165218426,Memorial Site
822,Le Chanard,48.8529120567913,2.361544888389472,Aux Merveilleux de Fred,48.85568607650127,2.356368899345398,Dessert Shop
823,Le Chanard,48.8529120567913,2.361544888389472,Princess Crêpe,48.85633801979823,2.3582201223926127,Creperie
824,Le Chanard,48.8529120567913,2.361544888389472,Maison de Victor Hugo,48.85517319635984,2.3658665866902946,Historic Site
825,Le Chanard,48.8529120567913,2.361544888389472,Carette,48.856304628258506,2.3654937744140625,Tea Room
826,Le Chanard,48.8529120567913,2.361544888389472,Le Peloton Café,48.85550466759594,2.3560337163355456,Coffee Shop
827,Le Chanard,48.8529120567913,2.361544888389472,Hôtel Turenne Le Marais,48.85508220217492,2.3633378712409416,Hotel
828,Le Chanard,48.8529120567913,2.361544888389472,Tamarind,48.85558457689471,2.3580934245539256,Thai Restaurant
829,Le Chanard,48.8529120567913,2.361544888389472,Hôtel du Jeu de Paume,48.85219609459946,2.35622901877828,Hotel
830,Le Chanard,48.8529120567913,2.361544888389472,Bubar,48.85395038475273,2.3672452569007874,Wine Bar
831,Le Chanard,48.8529120567913,2.361544888389472,Schwartz's Deli,48.85697506468535,2.3588300680322063,Burger Joint
832,Le Chanard,48.8529120567913,2.361544888389472,Lot Of Wine,48.85429892239226,2.3552682201424098,Wine Bar
833,Le Chanard,48.8529120567913,2.361544888389472,Popelini,48.85665757876075,2.3642975091934204,Pastry Shop
834,Le Chanard,48.8529120567913,2.361544888389472,L'Eléphant du Nil,48.85539868963803,2.3603315339710873,French Restaurant
835,Le Chanard,48.8529120567913,2.361544888389472,Petit Pan,48.85546021238195,2.35904288690604,Kids Store
836,Le Chanard,48.8529120567913,2.361544888389472,Les Fous de l'Île,48.85221305911912,2.356882355835097,French Restaurant
837,Le Chanard,48.8529120567913,2.361544888389472,El Ganso,48.85683986455612,2.3600554342273647,Men's Store
838,Le Chanard,48.8529120567913,2.361544888389472,L'Area Café,48.854247991532944,2.367328600640753,Brazilian Restaurant
